[{"id":"adventist-discovery-park","name":"Adventist DISCovery Park","city":"Opelika ","state":"Alabama","zip":"36804","holeCount":3,"rating":"","latitude":32.6454116,"longitude":-85.3782795},{"id":"agape-disc-golf-course","name":"Agape Disc Golf Course","city":"Scottsboro ","state":"Alabama","zip":"35769","holeCount":9,"rating":"","latitude":34.6228192,"longitude":-86.0806919},{"id":"aggieland-disc-golf","name":"Aggieland Disc Golf","city":"Hamilton ","state":"Alabama","zip":"35570","holeCount":18,"rating":"","latitude":34.1423235,"longitude":-87.9886438},{"id":"agricultural-heritage-park","name":"Agricultural Heritage Park","city":"Auburn ","state":"Alabama","zip":"36830","holeCount":9,"rating":"","latitude":32.5944595,"longitude":-85.4923344},{"id":"arab-city-park-844-shoal-creek-trail-35016","name":"Arab City Park","city":"Arab ","state":"Alabama","zip":"35016","holeCount":18,"rating":"","latitude":34.3178353,"longitude":-86.4818278},{"id":"asbury-umc-disc-golf-course","name":"Asbury UMC Disc Golf Course","city":"Madison ","state":"Alabama","zip":"35758","holeCount":9,"rating":"","latitude":34.7345,"longitude":-86.703071},{"id":"athens-state-university","name":"Athens State University","city":"Athens ","state":"Alabama","zip":"35611","holeCount":9,"rating":"","latitude":34.8055801,"longitude":-86.9645309},{"id":"auburn-university-montgomery-aum","name":"Auburn University Montgomery (AUM)","city":"Montgomery ","state":"Alabama","zip":"36117","holeCount":22,"rating":"","latitude":32.3697457,"longitude":-86.1766584},{"id":"baker-high-school","name":"Baker High School","city":" Mobile ","state":"Alabama","zip":"36608","holeCount":9,"rating":"","latitude":30.6695103,"longitude":-88.2522215},{"id":"bowers-park","name":"Bowers Park","city":"Tuscaloosa ","state":"Alabama","zip":"35405","holeCount":18,"rating":4.0,"latitude":33.1771041,"longitude":-87.5113813},{"id":"brahan-springs-park","name":"Brahan Springs Park","city":"Huntsville ","state":"Alabama","zip":"35805","holeCount":18,"rating":3.0,"latitude":34.7053182,"longitude":-86.6003214},{"id":"brush-creek-park","name":"Brush Creek Park","city":"Waterloo ","state":"Alabama","zip":"35677","holeCount":18,"rating":"","latitude":34.9039299,"longitude":-87.9881374},{"id":"burnt-corn-creek-park","name":"Burnt Corn Creek Park","city":"Brewton ","state":"Alabama","zip":"36426","holeCount":9,"rating":4.0,"latitude":31.1538647,"longitude":-87.0857914},{"id":"calhoun-huntsville-campus-disc-golf-course","name":"Calhoun Huntsville Campus Disc Golf Course","city":"Huntsville ","state":"Alabama","zip":"35805","holeCount":6,"rating":"","latitude":34.6824569,"longitude":-86.6387445},{"id":"camp-127","name":"Camp 1:27","city":"Clanton ","state":"Alabama","zip":"35046","holeCount":18,"rating":4.0,"latitude":32.8492509,"longitude":-86.5157391},{"id":"capital-city-disc-golf-course-0","name":"Capital City Disc Golf Course","city":"St. Stephens ","state":"Alabama","zip":"36569","holeCount":18,"rating":"","latitude":31.5561333,"longitude":-88.0376136},{"id":"casture-pattle-dgc","name":"Casture Pattle Disc Golf Course","city":"Lanett ","state":"Alabama","zip":"36863","holeCount":18,"rating":4.0,"latitude":32.8475631,"longitude":-85.2552697},{"id":"chapman-pines-disc-golf-course","name":"Chapman Pines Disc Golf Course","city":"Huntsville ","state":"Alabama","zip":"35811","holeCount":18,"rating":"","latitude":34.7734165,"longitude":-86.5473357},{"id":"chickasabogue-county-park-new-ridge","name":"Chickasabogue County Park - New Ridge","city":"Eight Mile ","state":"Alabama","zip":"36613","holeCount":18,"rating":"","latitude":30.7792176,"longitude":-88.1072892},{"id":"chickasabogue-county-park","name":"Chickasabogue County Park - Original","city":"Eight Mile ","state":"Alabama","zip":"36613","holeCount":18,"rating":4.0,"latitude":30.7792176,"longitude":-88.1072892},{"id":"chickasaw-community-park","name":"Chickasaw Community Park","city":"Chickasaw ","state":"Alabama","zip":"36611","holeCount":18,"rating":4.0,"latitude":30.76483,"longitude":-88.0742651},{"id":"choccolocco-park","name":"Choccolocco Park","city":"Oxford ","state":"Alabama","zip":"36203","holeCount":18,"rating":"","latitude":33.6006433,"longitude":-85.7865571},{"id":"citronelle-municipal-park","name":"Citronelle Municipal Park","city":"Citronelle ","state":"Alabama","zip":"36522","holeCount":18,"rating":5.0,"latitude":31.066847,"longitude":-88.3166768},{"id":"clanton-disc-golf-course","name":"Clanton Disc Golf Course","city":"Clanton ","state":"Alabama","zip":"35045","holeCount":18,"rating":4.0,"latitude":32.8434961,"longitude":-86.6269168},{"id":"clay-disc-golf-course","name":"Clay Disc Golf Course","city":"Clay ","state":"Alabama","zip":"35126","holeCount":21,"rating":"","latitude":33.7142894,"longitude":-86.5775104},{"id":"cottage-hill-park","name":"Cottage Hill Park","city":"Mobile ","state":"Alabama","zip":"36695","holeCount":18,"rating":3.0,"latitude":30.6564487,"longitude":-88.1858075},{"id":"creola-city-park","name":"Creola City Park","city":"Creola ","state":"Alabama","zip":"36525","holeCount":18,"rating":"","latitude":30.8920993,"longitude":-88.0378195},{"id":"daphne-central-park","name":"Daphne Central Park","city":"Daphne ","state":"Alabama","zip":"36526","holeCount":18,"rating":5.0,"latitude":30.6488356,"longitude":-87.9027959},{"id":"diamond-disc-golf","name":"Diamond Disc Golf","city":"Cottonwood ","state":"Alabama","zip":"36320","holeCount":9,"rating":"","latitude":31.0699391,"longitude":-85.3753701},{"id":"disc-golf-kymulga","name":"Disc Golf Kymulga","city":"Childersburg ","state":"Alabama","zip":"35044","holeCount":18,"rating":"","latitude":33.6302375,"longitude":-86.6022886},{"id":"drake-springs","name":"Drake Springs","city":"Huntsville ","state":"Alabama","zip":"35805","holeCount":9,"rating":"","latitude":34.7053182,"longitude":-86.6003214},{"id":"dublin-park","name":"Dublin Park","city":"Madison ","state":"Alabama","zip":"35758","holeCount":9,"rating":2.0,"latitude":34.7093546,"longitude":-86.7351659},{"id":"elkahatchee-state-park","name":"Elkahatchee State Park","city":"Alexander City ","state":"Alabama","zip":"35010","holeCount":9,"rating":3.0,"latitude":32.926169,"longitude":-85.9663895},{"id":"fairhope-municipal-park","name":"Fairhope Municipal Park","city":"Fairhope ","state":"Alabama","zip":"36532","holeCount":20,"rating":5.0,"latitude":30.5240334,"longitude":-87.912181},{"id":"fairview-park-disc-golf-course","name":"Fairview Park Disc Golf Course","city":"Fairview ","state":"Alabama","zip":"35058","holeCount":18,"rating":3.0,"latitude":34.2530802,"longitude":-86.6887503},{"id":"faith-church","name":"Faith Church","city":"Florence ","state":"Alabama","zip":"35634","holeCount":3,"rating":"","latitude":34.8434384,"longitude":-87.5998104},{"id":"faulkner-state-community-college","name":"Faulkner State Community College","city":"Bay Minette ","state":"Alabama","zip":"36507","holeCount":18,"rating":"","latitude":30.8516838,"longitude":-87.777356},{"id":"first-baptist-church-robertsdale","name":"First Baptist Church of Robertsdale","city":"Robertsdale ","state":"Alabama","zip":"36567","holeCount":9,"rating":"","latitude":30.5472851,"longitude":-87.7139716},{"id":"flying-dragon-disc-golf-course","name":"Flying Dragon Disc Golf Course","city":"Decatur ","state":"Alabama","zip":"35603","holeCount":18,"rating":"","latitude":34.5658725,"longitude":-87.0408775},{"id":"fort-rucker-flying-disc-golf-course","name":"Fort Rucker Flying Disc Golf Course","city":"Fort Rucker ","state":"Alabama","zip":"36362","holeCount":18,"rating":5.0,"latitude":31.3358955,"longitude":-85.7051467},{"id":"freedom-hills-disc-golf-course","name":"Freedom Hills Disc Golf Course","city":"Red Bay ","state":"Alabama","zip":"35582","holeCount":9,"rating":"","latitude":34.4401057,"longitude":-88.1128152},{"id":"gattman-park","name":"Gattman Park","city":"Muscle Shoals ","state":"Alabama","zip":"35661","holeCount":9,"rating":"","latitude":34.7386705,"longitude":-87.6580481},{"id":"george-ward-park","name":"George Ward Park","city":"Birmingham ","state":"Alabama","zip":"35205","holeCount":24,"rating":4.0,"latitude":33.4878408,"longitude":-86.8199633},{"id":"golden-bear-dgc","name":"Golden Bear DGC","city":"Lexington ","state":"Alabama","zip":"35648","holeCount":9,"rating":"","latitude":34.96925,"longitude":-87.3711316},{"id":"greenbrier-woods","name":"Greenbrier Woods","city":"Madison ","state":"Alabama","zip":"35756","holeCount":9,"rating":"","latitude":34.7109417,"longitude":-86.8050864},{"id":"rustic-youth-camp","name":"Greg Carter Memorial Course","city":"Russellville ","state":"Alabama","zip":"35653","holeCount":18,"rating":"","latitude":33.6373544,"longitude":-86.5968801},{"id":"greg-carter-memorial-disc-golf-course","name":"Greg Carter Memorial Disc Golf Course","city":"Trussville ","state":"Alabama","zip":"35173","holeCount":18,"rating":4.0,"latitude":33.6373544,"longitude":-86.5968801},{"id":"ha-alexander-park","name":"H.A. Alexander Park","city":"Moulton ","state":"Alabama","zip":"35650","holeCount":18,"rating":"","latitude":34.4815342,"longitude":-87.3062929},{"id":"halawaka-park","name":"Halawaka Park","city":"Salem ","state":"Alabama","zip":"36874","holeCount":18,"rating":3.0,"latitude":32.5968028,"longitude":-85.2385527},{"id":"heritage-park-1","name":"Heritage Park","city":"Cullman ","state":"Alabama","zip":"35055","holeCount":18,"rating":4.0,"latitude":34.1564293,"longitude":-86.842815},{"id":"honda-park-disc-golf-course","name":"Honda Park Disc Golf Course","city":"Lincoln ","state":"Alabama","zip":"35096","holeCount":18,"rating":"","latitude":33.6059757,"longitude":-86.1258911},{"id":"hurricane-alley-discgolfcourse","name":"Hurricane Alley Disc Golf Course","city":"Irvington ","state":"Alabama","zip":"36544","holeCount":9,"rating":"","latitude":30.6986962,"longitude":-88.184456},{"id":"indian-creek-disc-golf-course","name":"Indian Creek Disc Golf Course","city":"Huntsville ","state":"Alabama","zip":"35806","holeCount":20,"rating":3.0,"latitude":34.7345,"longitude":-86.703071},{"id":"inverness-disc-golf-park","name":"Inverness Disc Golf Park","city":"Birmingham ","state":"Alabama","zip":"35242","holeCount":18,"rating":4.0,"latitude":33.4183388,"longitude":-86.7148867},{"id":"ivan-k-hill-park","name":"Ivan K. Hill Disc Golf Course ","city":"Winfield ","state":"Alabama","zip":"35594","holeCount":18,"rating":5.0,"latitude":33.9362633,"longitude":-87.8084416},{"id":"jacksonville-community-disc-golf-course","name":"Jacksonville Community Disc Golf Course","city":"Jacksonville ","state":"Alabama","zip":"36265","holeCount":9,"rating":1.0,"latitude":33.8113394,"longitude":-85.772768},{"id":"joe-wheeler-state-park","name":"Joe Wheeler State Park","city":"Rogersville ","state":"Alabama","zip":"35652","holeCount":18,"rating":"","latitude":34.8256425,"longitude":-87.2947417},{"id":"john-hunt-park","name":"John Hunt Park","city":"Huntsville ","state":"Alabama","zip":"35802","holeCount":18,"rating":1.0,"latitude":34.6897827,"longitude":-86.5875803},{"id":"john-lemaster-memorial-dgc","name":"John Lemaster Memorial Disc Golf Course","city":"Trussville ","state":"Alabama","zip":"35173","holeCount":18,"rating":5.0,"latitude":33.6302375,"longitude":-86.6022886},{"id":"logan-park","name":"Kent Robertson Park","city":"Huntsville ","state":"Alabama","zip":"35802","holeCount":6,"rating":"","latitude":34.6582711,"longitude":-86.5807626},{"id":"kudzu-cove-disc-golf-course","name":"Kudzu Cove Disc Golf Course","city":"Guntersville ","state":"Alabama","zip":"35976","holeCount":18,"rating":"","latitude":34.4071296,"longitude":-86.2493598},{"id":"lake-ellis-disc-golf-course","name":"Lake Ellis Disc Golf Course","city":"Chatom ","state":"Alabama","zip":"36518","holeCount":18,"rating":"","latitude":31.4651653,"longitude":-88.2544557},{"id":"lake-point-park","name":"Lake Point Park","city":"Heflin ","state":"Alabama","zip":"36264","holeCount":18,"rating":4.0,"latitude":33.6472706,"longitude":-85.6022306},{"id":"lakeside-disc-golf-veterans-memorial-park","name":"Lakeside Disc Golf at Veterans Memorial Park","city":"Florence ","state":"Alabama","zip":"35630","holeCount":18,"rating":5.0,"latitude":34.8113363,"longitude":-87.6229231},{"id":"lakeview-country-club","name":"Lakeview Country Club","city":"McCalla ","state":"Alabama","zip":"35111","holeCount":18,"rating":5.0,"latitude":33.2810418,"longitude":-87.1391386},{"id":"langan-municipal-park","name":"Langan Municipal Park","city":"Mobile ","state":"Alabama","zip":"36608","holeCount":19,"rating":3.0,"latitude":30.7062075,"longitude":-88.1596322},{"id":"lifepoint-disc-golf-course","name":"Lifepoint Disc Golf Course","city":"Albertville ","state":"Alabama","zip":"35950","holeCount":9,"rating":"","latitude":34.283414,"longitude":-86.2286646},{"id":"live-oak-landing","name":"Live Oak Landing","city":"Stockton ","state":"Alabama","zip":"36579","holeCount":18,"rating":"","latitude":30.9587292,"longitude":-87.8707645},{"id":"magnolia-links","name":"Magnolia Links","city":"Mount Olive ","state":"Alabama","zip":"35117","holeCount":18,"rating":4.0,"latitude":33.6356716,"longitude":-86.8658012},{"id":"major-creek-crossing","name":"Major Creek Crossing","city":"Montgomery ","state":"Alabama","zip":"36109","holeCount":10,"rating":1.0,"latitude":32.3898033,"longitude":-86.3947661},{"id":"mastin-lake","name":"Mastin Lake","city":"Huntsville ","state":"Alabama","zip":"35810","holeCount":18,"rating":3.0,"latitude":34.7712563,"longitude":-86.6159514},{"id":"mcfarland-park-disc-golf","name":"McFarland Park Disc Golf","city":"Florence ","state":"Alabama","zip":"35630","holeCount":18,"rating":4.0,"latitude":34.7838951,"longitude":-87.684},{"id":"mirabeau-apartments","name":"Mirabeau Apartments","city":"Huntsville ","state":"Alabama","zip":"35805","holeCount":9,"rating":"","latitude":34.71293,"longitude":-86.5957977},{"id":"monte-sano-state-park","name":"Monte Sano State Park","city":"Huntsville ","state":"Alabama","zip":"35801","holeCount":18,"rating":4.0,"latitude":34.7399425,"longitude":-86.5118155},{"id":"mrag-disc-golf-course","name":"MRAG Disc Golf Course","city":"Mobile ","state":"Alabama","zip":"36618","holeCount":18,"rating":"","latitude":30.6986962,"longitude":-88.184456},{"id":"municipal-red","name":"Municipal Red Disc Golf Course","city":"Mobile ","state":"Alabama","zip":"36608","holeCount":18,"rating":"","latitude":30.6986962,"longitude":-88.184456},{"id":"new-hope-city-park-disc-golf-course","name":"New Hope City Park Disc Golf Course","city":"New Hope ","state":"Alabama","zip":"35760","holeCount":18,"rating":"","latitude":34.3206801,"longitude":-86.4811659},{"id":"north-jasper-park","name":"North Jasper Park","city":"Jasper ","state":"Alabama","zip":"35503","holeCount":18,"rating":"","latitude":33.8826856,"longitude":-87.2896616},{"id":"ol-colony-disc-golf-course","name":"Ol' Colony Disc Golf Course","city":"Tuscaloosa ","state":"Alabama","zip":"35406","holeCount":18,"rating":"","latitude":33.2568198,"longitude":-87.5373611},{"id":"oliver-park-disc-golf-course","name":"Oliver Park Disc Golf Course","city":"Calera ","state":"Alabama","zip":"35040","holeCount":18,"rating":"","latitude":33.0947617,"longitude":-86.7659345},{"id":"oscar-johnson-park","name":"Oscar Johnson Park","city":"Silverhill ","state":"Alabama","zip":"36576","holeCount":5,"rating":"","latitude":30.5461693,"longitude":-87.7363276},{"id":"osprey-disc-golf-course","name":"Osprey Disc Golf Course","city":"Orange Beach ","state":"Alabama","zip":"36561","holeCount":9,"rating":3.0,"latitude":30.2941192,"longitude":-87.5485099},{"id":"palmore-park","name":"Palmore Park","city":"Tuscaloosa ","state":"Alabama","zip":"35401","holeCount":18,"rating":"","latitude":33.1792309,"longitude":-87.6054429},{"id":"patriot-hills-0","name":"Patriot Hills","city":"Somerville ","state":"Alabama","zip":"35670","holeCount":10,"rating":"","latitude":34.4731491,"longitude":-86.798612},{"id":"graham-creek-pecan-hollow","name":"Pecan Hollow at Graham Creek Nature Preserve","city":"Foley ","state":"Alabama","zip":"36542","holeCount":18,"rating":5.0,"latitude":30.347877,"longitude":-87.6325522},{"id":"pinson-bicentennial-park","name":"Pinson Bicentennial Park","city":"Pinson ","state":"Alabama","zip":"35126al","holeCount":18,"rating":"","latitude":33.68376,"longitude":-86.684194},{"id":"quail-creek-one-disc-golf-course","name":"Quail Creek One Disc Golf Course","city":"Hartselle ","state":"Alabama","zip":"35640","holeCount":18,"rating":"","latitude":34.3867761,"longitude":-86.8659449},{"id":"rainbow-city-disc-golf-course","name":"Rainbow City Disc Golf Course","city":"Rainbow City ","state":"Alabama","zip":"35906","holeCount":18,"rating":4.0,"latitude":33.9384231,"longitude":-86.0731048},{"id":"redstone-arsenal","name":"Redstone Arsenal","city":"Huntsville ","state":"Alabama","zip":"35808","holeCount":21,"rating":4.0,"latitude":34.6950842,"longitude":-86.6510329},{"id":"revelation-mountain","name":"Revelation Mountain","city":"Pell City ","state":"Alabama","zip":"35125","holeCount":18,"rating":"","latitude":33.6288538,"longitude":-86.2767995},{"id":"semmes-middle-school","name":"Semmes Middle School","city":"Semmes ","state":"Alabama","zip":"36575","holeCount":9,"rating":"","latitude":30.7860988,"longitude":-88.2912727},{"id":"shocco-springs","name":"Shocco Springs","city":"Talladega ","state":"Alabama","zip":"35160","holeCount":9,"rating":"","latitude":33.4560905,"longitude":-86.1388557},{"id":"smiths-station-disc-golf-course","name":"Smiths Station Disc Golf Course","city":"Smiths Station ","state":"Alabama","zip":"36877","holeCount":18,"rating":"","latitude":32.5219258,"longitude":-85.1178105},{"id":"southside-park-0","name":"Southside Park","city":"Huntsville ","state":"Alabama","zip":"35803","holeCount":18,"rating":"","latitude":34.5998105,"longitude":-86.545931},{"id":"sparkman-park-lakeside","name":"Sparkman Park - Lakeside","city":"Hartselle ","state":"Alabama","zip":"35640","holeCount":18,"rating":"","latitude":34.427332,"longitude":-86.9358091},{"id":"sparkman-park","name":"Sparkman Park - Original","city":"Hartselle ","state":"Alabama","zip":"35640","holeCount":18,"rating":2.0,"latitude":34.4276961,"longitude":-86.9354237},{"id":"sportsplex","name":"Sportsplex","city":"Athens ","state":"Alabama","zip":"35611","holeCount":19,"rating":4.0,"latitude":34.8144585,"longitude":-86.941128},{"id":"spring-hill-college-disc-golf-course","name":"Spring Hill College Disc Golf Course","city":"Mobile ","state":"Alabama","zip":"36608","holeCount":18,"rating":"","latitude":30.6915278,"longitude":-88.137679},{"id":"spring-street-disc-golf-course","name":"Spring Street Disc Golf Course","city":"Adamsville ","state":"Alabama","zip":"35005","holeCount":9,"rating":"","latitude":33.5973369,"longitude":-86.9588714},{"id":"springhill-hobbit-disc-golf-course","name":"Springhill Hobbit Disc Golf Course","city":"Mobile ","state":"Alabama","zip":"36607","holeCount":18,"rating":1.0,"latitude":30.6986962,"longitude":-88.184456},{"id":"stapleton-school-disc-golf-course","name":"Stapleton School Disc Golf Course","city":"Stapleton ","state":"Alabama","zip":"36578","holeCount":9,"rating":"","latitude":30.6488356,"longitude":-87.9027959},{"id":"steele-creek","name":"Steele Creek","city":"Satsuma ","state":"Alabama","zip":"36572","holeCount":9,"rating":"","latitude":30.8627794,"longitude":-88.0666769},{"id":"taylor-disc-golf-course","name":"Taylor Disc Golf Course","city":" Taylor ","state":"Alabama","zip":"36301","holeCount":9,"rating":"","latitude":31.1605999,"longitude":-85.4685021},{"id":"admiral","name":"The Admiral","city":"Semmes ","state":"Alabama","zip":"36575","holeCount":18,"rating":"","latitude":30.7515927,"longitude":-88.2351695},{"id":"eagle-disc-golf-course","name":"The Eagle Disc Golf Course","city":"Jasper ","state":"Alabama","zip":"35504","holeCount":18,"rating":"","latitude":33.852593,"longitude":-87.2614962},{"id":"hangar","name":"The Hangar at Robert Cardinal Park","city":"Tuscaloosa ","state":"Alabama","zip":"35473","holeCount":18,"rating":"","latitude":33.2235187,"longitude":-87.6117253},{"id":"eastgate-park","name":"The Oaks at Eastgate Park","city":"Ashford ","state":"Alabama","zip":"36312","holeCount":18,"rating":"","latitude":31.1605265,"longitude":-85.3202995},{"id":"outback","name":"The Outback at Central Park Baptist","city":"Decatur ","state":"Alabama","zip":"35601","holeCount":9,"rating":"","latitude":34.5815254,"longitude":-87.0202958},{"id":"prairie-graham-creek-nature-preserve","name":"The Prairie at Graham Creek Nature Preserve","city":"Foley ","state":"Alabama","zip":"36535","holeCount":18,"rating":5.0,"latitude":30.3485203,"longitude":-87.6177439},{"id":"preserve-graham-creek-nature-preserve","name":"The Preserve at Graham Creek Nature Preserve","city":"Foley ","state":"Alabama","zip":"36535","holeCount":18,"rating":5.0,"latitude":30.347877,"longitude":-87.6325522},{"id":"ridge","name":"The Ridge","city":"Springville ","state":"Alabama","zip":"35146","holeCount":18,"rating":"","latitude":33.8129309,"longitude":-86.4973193},{"id":"river-course","name":"The River Course","city":"Phenix City ","state":"Alabama","zip":"36867","holeCount":18,"rating":3.0,"latitude":32.4706839,"longitude":-84.9988778},{"id":"tiger-trail-u-w-alabama","name":"The Tiger Trail at U of W. Alabama","city":"Livingston ","state":"Alabama","zip":"35470","holeCount":18,"rating":"","latitude":32.5950799,"longitude":-88.1845254},{"id":"tumble-tree-disc-golf-course","name":"Tumble Tree Disc Golf Course","city":"Opelika ","state":"Alabama","zip":"36801","holeCount":18,"rating":4.0,"latitude":32.6751084,"longitude":-85.3495045},{"id":"univ-ala-huntsville-uah","name":"Univ. of Ala. Huntsville (UAH)","city":"Huntsville ","state":"Alabama","zip":"35805","holeCount":18,"rating":"","latitude":34.7251308,"longitude":-86.6398951},{"id":"university-mobile-disc-golf-course","name":"University of Mobile Disc Golf Course","city":"Eight Mile ","state":"Alabama","zip":"36613","holeCount":18,"rating":"","latitude":30.7937662,"longitude":-88.1319775},{"id":"university-montevallo","name":"University of Montevallo","city":"Montevallo ","state":"Alabama","zip":"35115","holeCount":18,"rating":"","latitude":33.1067187,"longitude":-86.8654168},{"id":"university-south-alabama","name":"University of South Alabama","city":"Mobile ","state":"Alabama","zip":"36608","holeCount":18,"rating":"","latitude":30.6959406,"longitude":-88.184236},{"id":"valley-disc-golf-course-0","name":"Valley Junior High Disc Golf Course","city":"Jasper ","state":"Alabama","zip":"35504","holeCount":12,"rating":"","latitude":33.8266058,"longitude":-87.1776186},{"id":"veterans-park-dgc-2","name":"Veterans Park DGC","city":"Alabaster ","state":"Alabama","zip":"35007","holeCount":18,"rating":"","latitude":33.1865441,"longitude":-86.8281571},{"id":"wallace-state-community-college","name":"Wallace State Community College","city":"Hanceville ","state":"Alabama","zip":"35057","holeCount":18,"rating":"","latitude":34.059845,"longitude":-86.7695439},{"id":"warhawk","name":"Warhawk at Calhoun Community College","city":"Tanner ","state":"Alabama","zip":"35609","holeCount":18,"rating":"","latitude":34.647351,"longitude":-86.949278},{"id":"aantiyeik-park","name":"Aant'iyeik Park","city":"Juneau ","state":"Alaska","zip":"99801","holeCount":18,"rating":"","latitude":58.3820892,"longitude":-134.7361229},{"id":"alcantra-disc-golf-big-su","name":"Alcantra Disc Golf - Big Su","city":"Wasilla ","state":"Alaska","zip":"99654","holeCount":20,"rating":"","latitude":61.612419,"longitude":-149.3874267},{"id":"alcantra","name":"Alcantra Disc Golf - Little Su","city":"Wasilla ","state":"Alaska","zip":"99654","holeCount":9,"rating":4.0,"latitude":61.612419,"longitude":-149.3874267},{"id":"birch-hill-disc-golf-course","name":"Birch Hill Disc Golf Course","city":"Fairbanks ","state":"Alaska","zip":"99707","holeCount":18,"rating":"","latitude":64.8700878,"longitude":-147.6473769},{"id":"birch-ridge-disc-golf-course","name":"Birch Ridge Disc Golf Course","city":"Soldotna ","state":"Alaska","zip":"99669","holeCount":18,"rating":"","latitude":60.4985515,"longitude":-151.0043874},{"id":"buoy-dunes","name":"Buoy Dunes","city":"St. Paul ","state":"Alaska","zip":"99660","holeCount":9,"rating":"","latitude":57.1892354,"longitude":-170.2903157},{"id":"davis-park-0","name":"Davis Park","city":"Anchorage ","state":"Alaska","zip":"99501","holeCount":9,"rating":"","latitude":61.2264053,"longitude":-149.7879477},{"id":"eagle-river-high-school-disc-golf-course","name":"Eagle River High School Disc Golf Course","city":"Eagle River ","state":"Alaska","zip":"99577","holeCount":9,"rating":4.0,"latitude":61.2979881,"longitude":-149.5722847},{"id":"eureka-disc-golf-univeristy-alaska-se","name":"Eureka Disc Golf at Univeristy of Alaska SE","city":" Juneau ","state":"Alaska","zip":"99801","holeCount":9,"rating":"","latitude":58.3826502,"longitude":-134.7356895},{"id":"girdwood-forest-fair-park","name":"Girdwood Forest Fair Park","city":"Girdwood ","state":"Alaska","zip":"99587","holeCount":36,"rating":4.0,"latitude":60.961089,"longitude":-149.1377219},{"id":"glacier-point","name":"Glacier Point","city":"Glacier Point ","state":"Alaska","zip":"99827","holeCount":18,"rating":"","latitude":59.1025,"longitude":-135.3822222},{"id":"glass-park","name":"Glass Park at Fort Wainwright","city":"Fairbanks ","state":"Alaska","zip":"99703","holeCount":18,"rating":"","latitude":64.8366803,"longitude":-147.686282},{"id":"hanshew-middle-school","name":"Hanshew Middle School","city":"Anchorage ","state":"Alaska","zip":"99507","holeCount":9,"rating":2.0,"latitude":61.1304605,"longitude":-149.8308},{"id":"hilltop-ski-area","name":"Hilltop Ski Area","city":"Anchorage ","state":"Alaska","zip":"99507","holeCount":18,"rating":5.0,"latitude":61.140846,"longitude":-149.7449609},{"id":"hilltop-yellow-short-9","name":"Hilltop Yellow Short 9","city":"Anchorage ","state":"Alaska","zip":"99507","holeCount":9,"rating":5.0,"latitude":61.140846,"longitude":-149.7449609},{"id":"jack-gist-park","name":"Jack Gist Park","city":"Homer ","state":"Alaska","zip":"99603","holeCount":9,"rating":4.0,"latitude":59.6605508,"longitude":-151.4824113},{"id":"kenai-eagle-disc-golf-course","name":"Kenai Eagle Disc Golf Course","city":"Kenai ","state":"Alaska","zip":"99611","holeCount":18,"rating":"","latitude":60.558502,"longitude":-151.202493},{"id":"kincaid-park-disc-golf-course","name":"Kincaid Park Disc Golf Course","city":"Anchorage ","state":"Alaska","zip":"99502","holeCount":18,"rating":4.0,"latitude":61.1537359,"longitude":-150.0557508},{"id":"king-salmon-park","name":"King Salmon Park","city":"King Salmon ","state":"Alaska","zip":"99613","holeCount":9,"rating":"","latitude":58.6828474,"longitude":-156.6687261},{"id":"mountain-disc-golf-course-alyeska-resort","name":"Mountain Disc Golf Course at Alyeska Resort","city":"Girdwood ","state":"Alaska","zip":"99587","holeCount":9,"rating":"","latitude":60.9704373,"longitude":-149.0985114},{"id":"nikiski-recreation-center","name":"Nikiski Recreation Center Disc Golf Course","city":"Nikiski ","state":"Alaska","zip":"99611","holeCount":18,"rating":"","latitude":60.7050036,"longitude":-151.3809706},{"id":"north-point-higgins","name":"North Point Higgins","city":"Ketchikan ","state":"Alaska","zip":"99901","holeCount":18,"rating":"","latitude":55.4714236,"longitude":-131.8111709},{"id":"palmer-high-school","name":"Palmer High School","city":"Palmer ","state":"Alaska","zip":"99645","holeCount":9,"rating":"","latitude":61.6052401,"longitude":-149.1374614},{"id":"peters-creek-disc-golf-course","name":"Peters Creek Disc Golf Course","city":"Chugiak ","state":"Alaska","zip":"99567","holeCount":18,"rating":4.0,"latitude":61.4042427,"longitude":-149.4561296},{"id":"ravens-bowl","name":"Raven's Bowl","city":"Haines ","state":"Alaska","zip":"99827","holeCount":18,"rating":"","latitude":59.2345692,"longitude":-135.443448},{"id":"reservoir-course","name":"Reservoir Course","city":"Cordova ","state":"Alaska","zip":"99574","holeCount":9,"rating":"","latitude":60.5324046,"longitude":-145.7542821},{"id":"tsalteshi-trails","name":"River City Disc Golf Course on Tsalteshi Trails","city":"Soldotna ","state":"Alaska","zip":"99669","holeCount":19,"rating":"","latitude":60.4724419,"longitude":-151.1006746},{"id":"bernie-huss-memorial-trails","name":"Ryan Creek Disc Golf Course","city":"Kenai ","state":"Alaska","zip":"99611","holeCount":9,"rating":"","latitude":60.5584036,"longitude":-151.2039566},{"id":"schroeder-park-disc-golf-course","name":"Schroeder Park Disc Golf Course","city":"Eagle River ","state":"Alaska","zip":"99577","holeCount":9,"rating":2.0,"latitude":61.3326863,"longitude":-149.5748368},{"id":"service-high-school","name":"Service High School","city":"Anchorage ","state":"Alaska","zip":"99507","holeCount":9,"rating":3.0,"latitude":61.1381933,"longitude":-149.7812832},{"id":"seven-pastures","name":"Seven Pastures","city":"Skagway ","state":"Alaska","zip":"99840","holeCount":18,"rating":"","latitude":59.4669676,"longitude":-135.3072326},{"id":"seward-middle-school","name":"Seward Middle School","city":"Seward ","state":"Alaska","zip":"99664","holeCount":9,"rating":"","latitude":60.1316122,"longitude":-149.4416854},{"id":"soldotna-high-school","name":"Soldotna High School","city":"Soldotna ","state":"Alaska","zip":"99669","holeCount":9,"rating":"","latitude":60.4938,"longitude":-151.096},{"id":"sutton-dgc","name":"Sutton Elementary Disc Golf Course","city":"Sutton ","state":"Alaska","zip":"99674","holeCount":9,"rating":"","latitude":61.7158829,"longitude":-148.8789561},{"id":"moose-pretzel","name":"The Moose Pretzel","city":"Homer ","state":"Alaska","zip":"99603","holeCount":18,"rating":5.0,"latitude":59.6425,"longitude":-151.5483333},{"id":"uaf-university-alaska-fairbanks","name":"UAF Blue Disc Golf Course","city":"Fairbanks ","state":"Alaska","zip":"99709","holeCount":9,"rating":"","latitude":64.859408,"longitude":-147.8592187},{"id":"uaf-gold","name":"UAF Gold Disc Golf Course","city":"Fairbanks ","state":"Alaska","zip":"99709","holeCount":18,"rating":4.0,"latitude":64.859408,"longitude":-147.8592187},{"id":"westchester-lagoon-park","name":"Westchester Lagoon Park","city":"Anchorage ","state":"Alaska","zip":"99503","holeCount":9,"rating":2.0,"latitude":61.2035349,"longitude":-149.9040875},{"id":"av-anderson-park-disc-golf-course","name":"A.V. Anderson Park Disc Golf Course","city":"Sierra Vista ","state":"Arizona","zip":"85635","holeCount":18,"rating":3.0,"latitude":31.5412385,"longitude":-110.2907771},{"id":"arizona-snowbowl","name":"Arizona Snowbowl","city":"Flagstaff ","state":"Arizona","zip":"86001","holeCount":18,"rating":4.0,"latitude":35.330886,"longitude":-111.7103},{"id":"blanchard-discgolfcourse","name":"Blanchard Disc Golf Course","city":"Tucson ","state":"Arizona","zip":"85707","holeCount":18,"rating":"","latitude":32.2170333,"longitude":-110.8630447},{"id":"buffalo-ridge-park","name":"Buffalo Ridge Park","city":"Phoenix ","state":"Arizona","zip":"85022","holeCount":27,"rating":4.0,"latitude":33.6598173,"longitude":-112.0459342},{"id":"cactus-flats","name":"Cactus Flats","city":"Kingman ","state":"Arizona","zip":"86409","holeCount":18,"rating":"","latitude":35.2706305,"longitude":-114.030317},{"id":"canyon-trails-dgc","name":"Canyon Trails Disc Golf Course","city":"Goodyear ","state":"Arizona","zip":"85338","holeCount":9,"rating":"","latitude":33.4426864,"longitude":-112.4187396},{"id":"casa-grande-disc-golf-course-college-park","name":"Casa Grande Disc Golf Course - College Park","city":"Casa Grande ","state":"Arizona","zip":"85122","holeCount":9,"rating":"","latitude":32.9025874,"longitude":-111.7519862},{"id":"cerbat-cliffs-golf-course","name":"Cerbat Cliffs Golf Course","city":"Kingman ","state":"Arizona","zip":"86401","holeCount":18,"rating":"","latitude":35.2066415,"longitude":-114.0422698},{"id":"coldwater-ranch","name":"Coldwater Ranch","city":"Peoria ","state":"Arizona","zip":"85383","holeCount":18,"rating":"","latitude":33.7232694,"longitude":-112.3203651},{"id":"conocido-park","name":"Conocido Park","city":"Phoenix ","state":"Arizona","zip":"85053","holeCount":18,"rating":3.0,"latitude":33.6321135,"longitude":-112.1330108},{"id":"copper-sky","name":"Copper Sky","city":"Maricopa ","state":"Arizona","zip":"85139","holeCount":18,"rating":"","latitude":33.0409719,"longitude":-112.0433987},{"id":"deer-creek-canyon","name":"Deer Creek Canyon at Haulapai Mountain","city":"Kingman ","state":"Arizona","zip":"86401","holeCount":9,"rating":"","latitude":35.185542,"longitude":-114.0053991},{"id":"emerald-park","name":"Emerald Park","city":"Mesa ","state":"Arizona","zip":"85204","holeCount":9,"rating":3.0,"latitude":33.3880812,"longitude":-111.7956089},{"id":"emmanuel-pines-camp","name":"Emmanuel Pines Camp","city":"Prescott ","state":"Arizona","zip":"86305","holeCount":18,"rating":"","latitude":34.569242,"longitude":-112.536662},{"id":"firefighters-memorial-park","name":"Firefighters Memorial Park","city":"Kingman ","state":"Arizona","zip":"86401","holeCount":9,"rating":"","latitude":35.2153881,"longitude":-114.030323},{"id":"fort-tuthill-disc-golf-course","name":"Fort Tuthill Disc Golf Course","city":"Flagstaff ","state":"Arizona","zip":"86005","holeCount":18,"rating":5.0,"latitude":35.1395689,"longitude":-111.6936545},{"id":"fountain-hills-disc-golf-course","name":"Fountain Hills Disc Golf Course","city":"Fountain Hills ","state":"Arizona","zip":"85268","holeCount":19,"rating":4.0,"latitude":33.602362,"longitude":-111.709004},{"id":"four-seasons-disc-golf-course","name":"Four Seasons Disc Golf Course","city":"Snowflake ","state":"Arizona","zip":"85937","holeCount":18,"rating":4.0,"latitude":34.5099828,"longitude":-110.121387},{"id":"stripe-show-golf-club","name":"Freedom Disc Golf at Stripe Show Golf Club","city":"Mesa ","state":"Arizona","zip":"85210","holeCount":18,"rating":"","latitude":33.3888829,"longitude":-111.8519247},{"id":"freestone-park","name":"Freestone Park","city":"Gilbert  ","state":"Arizona","zip":"85234","holeCount":9,"rating":"","latitude":33.3587464,"longitude":-111.7684971},{"id":"golf-club-oasis","name":"Golf Club at Oasis","city":"Florence ","state":"Arizona","zip":"85132","holeCount":9,"rating":"","latitude":33.0995322,"longitude":-111.4927855},{"id":"grand-canyon-caverns-inn-disc-golf-course","name":"Grand Canyon Caverns Inn Disc Golf Course","city":"Peach Springs  ","state":"Arizona","zip":"86434","holeCount":9,"rating":1.0,"latitude":35.5290514,"longitude":-113.4274531},{"id":"grand-island-disc-golf-course","name":"Grand Island Disc Golf Course","city":"Lake Havasu ","state":"Arizona","zip":"86403","holeCount":9,"rating":2.0,"latitude":34.4572514,"longitude":-114.3636753},{"id":"greens-park-disc-golf-course","name":"Greens Park Disc Golf Course","city":"San Tan Valley ","state":"Arizona","zip":"85143","holeCount":9,"rating":"","latitude":33.155263,"longitude":-111.550865},{"id":"groves-park","name":"Groves Park","city":"Tucson ","state":"Arizona","zip":"85730","holeCount":9,"rating":4.0,"latitude":32.1713461,"longitude":-110.8330652},{"id":"hidden-cove-disc-golf-course","name":"Hidden Cove Disc Golf Course","city":"Holbrook ","state":"Arizona","zip":"86025","holeCount":18,"rating":"","latitude":34.919636,"longitude":-110.1942099},{"id":"ironside-bluffs","name":"Ironside Bluffs","city":"Show Low ","state":"Arizona","zip":"85901","holeCount":18,"rating":5.0,"latitude":34.2542084,"longitude":-110.0298327},{"id":"los-olivos","name":"Los Olivos","city":"Phoenix ","state":"Arizona","zip":"85016","holeCount":9,"rating":3.0,"latitude":33.4971419,"longitude":-112.0200925},{"id":"marana-rock-disc-golf-course","name":"Marana Rock Disc Golf Course","city":"Marana ","state":"Arizona","zip":"85743","holeCount":6,"rating":4.0,"latitude":32.3902667,"longitude":-111.1349337},{"id":"marbella-vineyards","name":"Marbella Vineyards","city":"Gilbert ","state":"Arizona","zip":"85298","holeCount":9,"rating":3.0,"latitude":33.240899,"longitude":-111.7160052},{"id":"maricopa-meadows","name":"Maricopa Meadows","city":"Maricopa ","state":"Arizona","zip":"85138","holeCount":27,"rating":"","latitude":33.0546417,"longitude":-112.0572357},{"id":"mckellips-lake","name":"McKellips Lake","city":"Scottsdale ","state":"Arizona","zip":"85257","holeCount":3,"rating":"","latitude":33.4529018,"longitude":-111.9129381},{"id":"mcpherson-park","name":"McPherson Park","city":"Flagstaff ","state":"Arizona","zip":"86001","holeCount":18,"rating":3.0,"latitude":35.2143793,"longitude":-111.6384045},{"id":"meadview","name":"Meadview","city":"Meadview ","state":"Arizona","zip":"86444","holeCount":9,"rating":2.0,"latitude":36.002155,"longitude":-114.0684841},{"id":"mesquite-grove-disc-golf-course","name":"Mesquite Grove Disc Golf Course","city":"Chandler ","state":"Arizona","zip":"85249","holeCount":9,"rating":2.0,"latitude":33.2494817,"longitude":-111.8266903},{"id":"mohave-valley-community-park-disc-golf-course","name":"Mohave Valley Community Park Disc Golf Course","city":"Mohave Valley ","state":"Arizona","zip":"86440","holeCount":9,"rating":"","latitude":34.8897227,"longitude":-114.5668446},{"id":"mountain-bridge-community-course","name":"Mountain Bridge Community Course","city":"Mesa ","state":"Arizona","zip":"85207","holeCount":9,"rating":"","latitude":33.4482554,"longitude":-111.6410524},{"id":"mountain-meadow-ranch","name":"Mountain Meadow Ranch","city":"Payson ","state":"Arizona","zip":"85541","holeCount":18,"rating":"","latitude":34.3316392,"longitude":-111.0107566},{"id":"mountainview-mcc","name":"Mountainview at MCC","city":"Bullhead City ","state":"Arizona","zip":"86442","holeCount":9,"rating":5.0,"latitude":35.062561,"longitude":-114.5848312},{"id":"northern-arizona-university-disc-golf-course","name":"Northern Arizona University Disc Golf Course","city":"Flagstaff ","state":"Arizona","zip":"86001","holeCount":18,"rating":"","latitude":35.1755585,"longitude":-111.6589713},{"id":"page-disc-golf","name":"Page Disc Golf","city":"Page ","state":"Arizona","zip":"86040","holeCount":9,"rating":"","latitude":36.9081932,"longitude":-111.4612961},{"id":"moeur-park","name":"Papago Disc Golf Course at Moeur Park","city":"Phoenix (Tempe) ","state":"Arizona","zip":"85282","holeCount":18,"rating":4.0,"latitude":33.4375762,"longitude":-111.9432553},{"id":"paseo-vista-recreation-area","name":"Paseo Vista Recreation Area","city":"Chandler ","state":"Arizona","zip":"85286","holeCount":18,"rating":3.0,"latitude":33.2498925,"longitude":-111.8265268},{"id":"ponderosa-park","name":"Ponderosa Park","city":"Prescott ","state":"Arizona","zip":"86303","holeCount":18,"rating":4.0,"latitude":34.4712085,"longitude":-112.4933047},{"id":"queen-creek-disc-golf","name":"Queen Creek Disc Golf","city":"Queen Creek ","state":"Arizona","zip":"85142","holeCount":7,"rating":"","latitude":33.2643561,"longitude":-111.669271},{"id":"red-mountain-north","name":"Red Mountain - North","city":"Mesa, ","state":"Arizona","zip":"85207","holeCount":18,"rating":3.0,"latitude":33.4748092,"longitude":-111.677858},{"id":"red-mountain-south","name":"Red Mountain - South","city":"Mesa ","state":"Arizona","zip":"85207","holeCount":18,"rating":3.0,"latitude":33.4748092,"longitude":-111.677858},{"id":"redline-disc-golf-course","name":"Redline Disc Golf Course","city":"Glendale ","state":"Arizona","zip":"85303","holeCount":18,"rating":"","latitude":33.522699,"longitude":-112.2358688},{"id":"ridge-line-apartments","name":"Ridge Line Disc Golf Course","city":"Flagstaff ","state":"Arizona","zip":"86001","holeCount":9,"rating":"","latitude":35.202774,"longitude":-111.6584777},{"id":"rillito-river-park-disc-golf-course","name":"Rillito River Park Disc Golf Course","city":"Tucson ","state":"Arizona","zip":"85719","holeCount":18,"rating":4.0,"latitude":32.2980191,"longitude":-111.006719},{"id":"riverfront-park-2","name":"Riverfront Park","city":"Cottonwood ","state":"Arizona","zip":"86326","holeCount":18,"rating":4.0,"latitude":34.7516885,"longitude":-112.0221098},{"id":"riverview-disc-golf-course-0","name":"Riverview Disc Golf Course","city":"Bullhead City ","state":"Arizona","zip":"86442","holeCount":9,"rating":3.0,"latitude":35.062561,"longitude":-114.5848312},{"id":"rumsey-park","name":"Rumsey Park","city":"Payson ","state":"Arizona","zip":"85541","holeCount":9,"rating":3.0,"latitude":34.2446364,"longitude":-111.3328745},{"id":"sam-lena-park","name":"Sam Lena Park","city":"Tucson ","state":"Arizona","zip":"85713","holeCount":6,"rating":4.0,"latitude":32.1820557,"longitude":-110.9270995},{"id":"santa-cruz-river-park","name":"Santa Cruz River Park","city":"Tucson ","state":"Arizona","zip":"85745","holeCount":18,"rating":3.0,"latitude":32.2492046,"longitude":-110.9966997},{"id":"sara-park-discgolfcourse","name":"SARA Park Disc Golf Course","city":"Lake Havasu City ","state":"Arizona","zip":"86406","holeCount":18,"rating":"","latitude":34.4487296,"longitude":-114.2677715},{"id":"school-house-gulch","name":"School House Gulch","city":"Prescott ","state":"Arizona","zip":"86303","holeCount":18,"rating":"","latitude":34.4890116,"longitude":-112.4434885},{"id":"sears-park","name":"Sears Park","city":"Tucson ","state":"Arizona","zip":"85711","holeCount":9,"rating":4.0,"latitude":32.2199807,"longitude":-110.8652912},{"id":"show-low-disc-golf-course","name":"Show Low Disc Golf Course","city":"Show Low ","state":"Arizona","zip":"85901","holeCount":18,"rating":5.0,"latitude":34.2444068,"longitude":-110.0593849},{"id":"skyline-ranch","name":"Skyline Ranch","city":"SanTan Valley ","state":"Arizona","zip":"85142","holeCount":9,"rating":4.0,"latitude":33.1842199,"longitude":-111.5751502},{"id":"sundance-park","name":"Sundance Park","city":"Buckeye ","state":"Arizona","zip":"85326","holeCount":18,"rating":5.0,"latitude":33.420496,"longitude":-112.542163},{"id":"sunrise-ski-resort","name":"Sunrise Ski Resort","city":"Fort Apache ","state":"Arizona","zip":"85930","holeCount":18,"rating":"","latitude":33.9735753,"longitude":-109.5639921},{"id":"sweetwater","name":"Sweetwater","city":"Phoenix ","state":"Arizona","zip":"85729","holeCount":18,"rating":3.0,"latitude":33.6007924,"longitude":-112.1385504},{"id":"tall-timbers-disc-golf-course","name":"Tall Timbers Disc Golf Course","city":"Heber/ Overgaard ","state":"Arizona","zip":"85928","holeCount":9,"rating":"","latitude":34.3973111,"longitude":-110.5615556},{"id":"boneyard","name":"The Boneyard","city":"Globe ","state":"Arizona","zip":"85501","holeCount":9,"rating":"","latitude":33.3819818,"longitude":-110.7728814},{"id":"lost-forrest","name":"The Lost Forrest","city":"Huachuca City ","state":"Arizona","zip":"85616","holeCount":9,"rating":"","latitude":31.6278703,"longitude":-110.3339678},{"id":"thorpe-park","name":"Thorpe Park","city":"Flagstaff ","state":"Arizona","zip":"86001","holeCount":18,"rating":2.0,"latitude":35.2022853,"longitude":-111.6593045},{"id":"thunderbird-paseo","name":"Thunderbird-Paseo","city":"Phoenix (Glendale) ","state":"Arizona","zip":"85304","holeCount":18,"rating":2.0,"latitude":33.607486,"longitude":-112.1835332},{"id":"tobin-brenard-disc-golf-course","name":"Tobin Brenard Disc Golf Course","city":"Quartzite ","state":"Arizona","zip":"85346","holeCount":9,"rating":"","latitude":33.6639137,"longitude":-114.2299486},{"id":"tortosa-disc-golf-course","name":"Tortosa Disc Golf Course","city":"Maricopa ","state":"Arizona","zip":"85138","holeCount":9,"rating":"","latitude":33.0637466,"longitude":-111.9579766},{"id":"vista-del-camino-park","name":"Vista del Camino Park","city":"Phoenix (Scottsdale) ","state":"Arizona","zip":"85257","holeCount":18,"rating":4.0,"latitude":33.4589046,"longitude":-111.9136439},{"id":"watson-lake","name":"Watson Lake","city":"Prescott ","state":"Arizona","zip":"86301","holeCount":18,"rating":4.0,"latitude":34.5874676,"longitude":-112.4179706},{"id":"wayne-ranch-disc-golf-course","name":"Wayne Ranch Disc Golf Course","city":"Queen Creek ","state":"Arizona","zip":"85140","holeCount":9,"rating":"","latitude":33.2643561,"longitude":-111.669271},{"id":"west-wetlands-park","name":"West Wetlands Park","city":"Yuma ","state":"Arizona","zip":"85364","holeCount":9,"rating":2.0,"latitude":32.7296162,"longitude":-114.6376607},{"id":"wilderness-ranch","name":"Wilderness Ranch","city":"Lakeside ","state":"Arizona","zip":"85929","holeCount":18,"rating":"","latitude":34.2018521,"longitude":-109.9146411},{"id":"willow-lake-disc-golf-course","name":"Willow Lake Disc Golf Course","city":"Prescott ","state":"Arizona","zip":"86301","holeCount":18,"rating":"","latitude":34.5907443,"longitude":-112.4221878},{"id":"wood-land","name":"Wood Land","city":"Pinetop-Lakeside ","state":"Arizona","zip":"85929","holeCount":18,"rating":4.0,"latitude":34.1291408,"longitude":-109.9739464},{"id":"alma-greens-disc-golf-course","name":"Alma Flying Disc Golf Course","city":"Alma ","state":"Arkansas","zip":"72921","holeCount":18,"rating":"","latitude":35.4778653,"longitude":-94.2218752},{"id":"alma-middle-school-disc-golf-course","name":"Alma Middle School Disc Golf Course","city":"Alma ","state":"Arkansas","zip":"72921","holeCount":9,"rating":"","latitude":35.4896486,"longitude":-94.2111104},{"id":"arkadelphia-youth-sports-complex","name":"Arkadelphia Youth Sports Complex","city":"Arkadelphia ","state":"Arkansas","zip":"71923","holeCount":18,"rating":4.0,"latitude":34.1418183,"longitude":-93.0777786},{"id":"arkansas-tech-university","name":"Arkansas Tech University","city":"Ozark ","state":"Arkansas","zip":"72949","holeCount":9,"rating":"","latitude":35.497672,"longitude":-93.8421303},{"id":"asumh-disc-golf-course","name":"ASUMH Disc Golf Course","city":"Mountain Home ","state":"Arkansas","zip":"72653","holeCount":18,"rating":"","latitude":36.3204181,"longitude":-92.3885758},{"id":"avoca-disc-golf-course","name":"Avoca Disc Golf Course","city":"Avoca ","state":"Arkansas","zip":"72711","holeCount":9,"rating":"","latitude":36.4043648,"longitude":-94.0717119},{"id":"bear-trail-disc-golf-course","name":"Bear Trail Disc Golf Course","city":"Conway ","state":"Arkansas","zip":"72035","holeCount":3,"rating":3.0,"latitude":35.2809467,"longitude":-92.3202104},{"id":"beaverfork-disc-golf-course","name":"Beaverfork Disc Golf Course","city":"Conway ","state":"Arkansas","zip":"73032","holeCount":18,"rating":4.0,"latitude":35.1390812,"longitude":-92.4547791},{"id":"bell-park-disc-golf-course","name":"Bell Park Disc Golf Course","city":"Greenwood ","state":"Arkansas","zip":"72936","holeCount":18,"rating":"","latitude":35.2271004,"longitude":-94.2660266},{"id":"ben-geren-parks-massard-creek-dgc-white-course","name":"Ben Geren Park - Massard Creek Disc Golf Course","city":"Fort Smith ","state":"Arkansas","zip":"72903","holeCount":18,"rating":"","latitude":35.3222776,"longitude":-94.3544267},{"id":"ben-geren-park-north","name":"Ben Geren Park - North Yellow","city":"Fort Smith ","state":"Arkansas","zip":"72916","holeCount":18,"rating":4.0,"latitude":35.3222776,"longitude":-94.3544267},{"id":"ben-geren-park-south","name":"Ben Geren Park - South Orange","city":"Fort Smith ","state":"Arkansas","zip":"72916","holeCount":18,"rating":"","latitude":35.3222776,"longitude":-94.3544267},{"id":"mountain-view-city-park","name":"Bluegrass Trails Disc Golf Course","city":"Mountain View ","state":"Arkansas","zip":"72560","holeCount":18,"rating":3.0,"latitude":35.8758273,"longitude":-92.1209402},{"id":"booneville-disc-golf-course","name":"Booneville Disc Golf Course","city":"Booneville ","state":"Arkansas","zip":"72927","holeCount":18,"rating":"","latitude":35.1433987,"longitude":-93.9158441},{"id":"bovine-9-catherines-landing","name":"Bovine 9 at Catherine's Landing","city":"Hot Springs ","state":"Arkansas","zip":"71901","holeCount":9,"rating":4.0,"latitude":34.4432355,"longitude":-93.0011253},{"id":"branchwood-disc-golf-course","name":"Branchwood Disc Golf Course","city":"Bella Vista ","state":"Arkansas","zip":"72715","holeCount":18,"rating":5.0,"latitude":36.4890983,"longitude":-94.3450187},{"id":"broadmoor-lake-disc-golf-course","name":"Broadmoor Lake Disc Golf Course","city":"Little Rock ","state":"Arkansas","zip":"72204","holeCount":9,"rating":"","latitude":34.6936345,"longitude":-92.3652631},{"id":"burns-park-blue","name":"Burns Park - Blue","city":"North Little Rock ","state":"Arkansas","zip":"72118","holeCount":18,"rating":"","latitude":34.7976957,"longitude":-92.3099177},{"id":"burns-park-junior","name":"Burns Park - Junior","city":"North Little Rock ","state":"Arkansas","zip":"72118","holeCount":9,"rating":"","latitude":34.8033551,"longitude":-92.3051218},{"id":"burns-park-red","name":"Burns Park - Red","city":"North Little Rock ","state":"Arkansas","zip":"72118","holeCount":18,"rating":"","latitude":34.7969206,"longitude":-92.3146125},{"id":"cabin-creek-0","name":"Cabin Creek","city":"Lamar ","state":"Arkansas","zip":"72846","holeCount":9,"rating":"","latitude":35.4396068,"longitude":-93.3921665},{"id":"carter-park-disc-golf-course","name":"Carter Park Disc Golf Course","city":"West Fork ","state":"Arkansas","zip":"72774","holeCount":18,"rating":"","latitude":35.9313371,"longitude":-94.1871539},{"id":"cedar-creek-disc-golf-course","name":"Cedar Creek Disc Golf Course","city":"West Fork ","state":"Arkansas","zip":"72774","holeCount":18,"rating":"","latitude":35.911641,"longitude":-94.257648},{"id":"cedar-glades","name":"Cedar Glades","city":"Hot Springs ","state":"Arkansas","zip":"71913","holeCount":18,"rating":5.0,"latitude":34.5387479,"longitude":-93.0805697},{"id":"cedar-street-park","name":"Cedar Street Park","city":"Trumann ","state":"Arkansas","zip":"72472","holeCount":9,"rating":"","latitude":35.6747967,"longitude":-90.5224106},{"id":"cherokee-acres-disc-golf-course","name":"Cherokee Acres Disc Golf Course","city":"Cherokee Village ","state":"Arkansas","zip":"72529","holeCount":9,"rating":"","latitude":36.310773,"longitude":-91.508366},{"id":"city-lake-park-0","name":"City Lake Park","city":"Siloam Springs ","state":"Arkansas","zip":"72761","holeCount":9,"rating":"","latitude":36.2227229,"longitude":-94.5351708},{"id":"city-charleston","name":"City of Charleston","city":"Charleston ","state":"Arkansas","zip":"72933","holeCount":9,"rating":"","latitude":35.2975966,"longitude":-94.0272778},{"id":"clarksville-schools","name":"Clarksville Schools","city":"Clarksville ","state":"Arkansas","zip":"72830","holeCount":9,"rating":"","latitude":35.492719,"longitude":-93.5205641},{"id":"cline-park-disc-golf-course","name":"Cline Park Disc Golf Course","city":"Clarksville ","state":"Arkansas","zip":"72830","holeCount":18,"rating":"","latitude":35.4693203,"longitude":-93.4514464},{"id":"clinton-disc-golf-course-0","name":"Clinton Disc Golf Course","city":"Clinton ","state":"Arkansas","zip":"72031","holeCount":18,"rating":"","latitude":35.5964781,"longitude":-92.4553049},{"id":"craighead-forest-loop-1","name":"Craighead Forest Disc Golf - Red","city":"Jonesboro ","state":"Arkansas","zip":"72404","holeCount":18,"rating":"","latitude":35.7784978,"longitude":-90.7024061},{"id":"craighead-forest-disc-golf-course","name":"Craighead Forest Disc Golf - Yellow","city":"Jonesboro ","state":"Arkansas","zip":"72401","holeCount":18,"rating":"","latitude":35.7850855,"longitude":-90.7118836},{"id":"creekside-park-disc-golf-course","name":"Creekside Park Disc Golf Course","city":"Farmington ","state":"Arkansas","zip":"72730","holeCount":18,"rating":"","latitude":36.0463177,"longitude":-94.235878},{"id":"cross-hollow-disc-golf-course","name":"Cross Hollow Disc Golf Course","city":"Rogers ","state":"Arkansas","zip":"72758","holeCount":9,"rating":3.0,"latitude":36.3023059,"longitude":-94.1194809},{"id":"danville-disc-golf-course","name":"Danville Disc Golf Course","city":"Danville ","state":"Arkansas","zip":"72833","holeCount":9,"rating":"","latitude":35.2988667,"longitude":-93.1218371},{"id":"decatur-disc-golf-course","name":"Decatur Disc Golf Course","city":"Decatur ","state":"Arkansas","zip":"72722","holeCount":9,"rating":"","latitude":36.3451326,"longitude":-94.4615818},{"id":"deer-creek-disc-golf-course","name":"Deer Creek Disc Golf Course","city":"Monticello ","state":"Arkansas","zip":"71655","holeCount":18,"rating":3.0,"latitude":33.6284514,"longitude":-91.8057111},{"id":"degray-lake-resort-disc-golf","name":"DeGray Lake Resort State Park Disc Golf","city":"Bismarck ","state":"Arkansas","zip":"71929","holeCount":18,"rating":"","latitude":34.2456659,"longitude":-93.1481097},{"id":"degray-lower-lake-disc-golf-course","name":"DeGray Lower Lake Disc Golf Course","city":"Caddo Valley ","state":"Arkansas","zip":"71923","holeCount":18,"rating":5.0,"latitude":34.1795702,"longitude":-93.0967166},{"id":"disc-side-heaven-champ-course","name":"Disc Side of Heaven - Champ Course","city":"Jonesboro ","state":"Arkansas","zip":"72404","holeCount":18,"rating":"","latitude":35.821156,"longitude":-90.775502},{"id":"disc-side-heaven-rec-course","name":"Disc Side of Heaven - Rec Course","city":"Jonesboro ","state":"Arkansas","zip":"72404","holeCount":18,"rating":"","latitude":35.821156,"longitude":-90.775502},{"id":"dupree-park","name":"Dupree Park","city":"Jacksonville ","state":"Arkansas","zip":"72076","holeCount":18,"rating":"","latitude":34.8562736,"longitude":-92.1290671},{"id":"eagles-nest","name":"Eagle's Nest","city":"Van Buren ","state":"Arkansas","zip":"72957","holeCount":18,"rating":"","latitude":35.5321463,"longitude":-94.2206798},{"id":"eighteens-pond-east","name":"Eighteens at The Pond - East","city":"Little Rock ","state":"Arkansas","zip":"72204","holeCount":18,"rating":"","latitude":34.7179437,"longitude":-92.3714901},{"id":"eighteens-pond-west","name":"Eighteens at The Pond - West","city":"Little Rock ","state":"Arkansas","zip":"72204","holeCount":18,"rating":"","latitude":34.7191535,"longitude":-92.3819599},{"id":"fair-park-0","name":"Fair Park","city":"Hope ","state":"Arkansas","zip":"71801","holeCount":9,"rating":"","latitude":33.659074,"longitude":-93.6071843},{"id":"fairview-elementary-school","name":"Fairview Elementary School","city":"Fort Smith ","state":"Arkansas","zip":"72901","holeCount":6,"rating":"","latitude":35.3526636,"longitude":-94.4082498},{"id":"fellowship-creek-disc-golf-course","name":"Fellowship Creek Disc Golf Course","city":"Russellville ","state":"Arkansas","zip":"72801","holeCount":9,"rating":"","latitude":35.2988667,"longitude":-93.1218371},{"id":"forest-home-church","name":"Forest Home Church","city":"Jonesboro ","state":"Arkansas","zip":"72401","holeCount":9,"rating":"","latitude":35.8154657,"longitude":-90.6908708},{"id":"future-fuel-disc-golf-course","name":"Future Fuel Disc Golf Course","city":"Batesville ","state":"Arkansas","zip":"72501","holeCount":18,"rating":"","latitude":35.7247827,"longitude":-91.5445078},{"id":"gentry-city-park","name":"Gentry City Park","city":"Gentry ","state":"Arkansas","zip":"72734","holeCount":9,"rating":"","latitude":36.2660926,"longitude":-94.4905994},{"id":"greenbrier-disc-golf-course","name":"Greenbrier Disc Golf Course","city":"Greenbrier ","state":"Arkansas","zip":"72058","holeCount":18,"rating":"","latitude":35.2809467,"longitude":-92.3202104},{"id":"har-ber-meadows","name":"Har-Ber Meadows","city":"Springdale ","state":"Arkansas","zip":"72762","holeCount":9,"rating":"","latitude":36.1828013,"longitude":-94.2026194},{"id":"harding-university","name":"Harding University","city":"Searcy ","state":"Arkansas","zip":"72143","holeCount":18,"rating":3.0,"latitude":35.245152,"longitude":-91.7235465},{"id":"harp-elementary-school","name":"Harp Elementary School","city":"Springdale ","state":"Arkansas","zip":"72764","holeCount":9,"rating":"","latitude":36.1601085,"longitude":-94.0954234},{"id":"herman-dierks-disc-golf-course","name":"Herman Dierks Disc Golf Course","city":"De Queen ","state":"Arkansas","zip":"71832","holeCount":9,"rating":"","latitude":34.0416637,"longitude":-94.3314694},{"id":"hickory-hollow","name":"Hickory Hollow","city":"Russellville ","state":"Arkansas","zip":"72801","holeCount":9,"rating":"","latitude":35.2718286,"longitude":-93.1473221},{"id":"hindman-park","name":"Hindman Park","city":"Little Rock ","state":"Arkansas","zip":"72209","holeCount":9,"rating":"","latitude":34.6972619,"longitude":-92.3662951},{"id":"holcomb-elementary-school","name":"Holcomb Elementary School","city":"Fayetteville ","state":"Arkansas","zip":"72704","holeCount":9,"rating":"","latitude":36.1057457,"longitude":-94.2064585},{"id":"holt-middle-school","name":"Holt Middle School","city":"Fayetteville ","state":"Arkansas","zip":"73704","holeCount":9,"rating":"","latitude":36.0955158,"longitude":-94.21418},{"id":"industrial-park","name":"Industrial Park","city":"Searcy ","state":"Arkansas","zip":"72143","holeCount":18,"rating":"","latitude":35.2419012,"longitude":-91.6975657},{"id":"jb-hunt-park-jbeast-junior","name":"JB Hunt Park - JBeast Junior","city":"Springdale ","state":"Arkansas","zip":"72762","holeCount":9,"rating":"","latitude":36.2060026,"longitude":-94.1577749},{"id":"jb-hunt-park","name":"JB Hunt Park - Main","city":"Springdale ","state":"Arkansas","zip":"72762","holeCount":18,"rating":2.0,"latitude":36.2060026,"longitude":-94.1577749},{"id":"jcf-disc-golf-course","name":"JCF Disc Golf Course","city":"Springdale ","state":"Arkansas","zip":"72765","holeCount":3,"rating":"","latitude":36.1384466,"longitude":-94.1350963},{"id":"john-brown-university-disc-golf-course","name":"John Brown University Disc Golf Course","city":"Siloam Springs ","state":"Arkansas","zip":"72761","holeCount":9,"rating":"","latitude":36.1900219,"longitude":-94.5605944},{"id":"keaton-coyle-memorial-disc-golf-course","name":"Keaton Coyle Memorial Disc Golf Course","city":"Prairie Grove ","state":"Arkansas","zip":"72753","holeCount":18,"rating":"","latitude":35.981288,"longitude":-94.3259547},{"id":"kerr-station-park","name":"Kerr Station Park","city":"Cabot ","state":"Arkansas","zip":"72023","holeCount":18,"rating":3.0,"latitude":34.9540249,"longitude":-92.0197909},{"id":"kj-memorial-park","name":"KJ Memorial Park","city":"Lowell ","state":"Arkansas","zip":"72745","holeCount":18,"rating":4.0,"latitude":36.2593289,"longitude":-94.1700438},{"id":"lavaca-elementary","name":"Lavaca Elementary","city":"Lavaca ","state":"Arkansas","zip":"72941","holeCount":9,"rating":"","latitude":35.3306105,"longitude":-94.1709637},{"id":"leslie-disc-golf-course","name":"Leslie Disc Golf Course","city":"Leslie ","state":"Arkansas","zip":"72645","holeCount":9,"rating":"","latitude":35.8268342,"longitude":-92.5564893},{"id":"little-debbie-disc-golf-course","name":"Little Debbie Disc Golf Course","city":"Gentry ","state":"Arkansas","zip":"72734","holeCount":9,"rating":"","latitude":36.2675793,"longitude":-94.4846601},{"id":"london-disc-golf-course","name":"London Disc Golf Course","city":"London ","state":"Arkansas","zip":"72847","holeCount":9,"rating":"","latitude":35.333749,"longitude":-93.2470624},{"id":"lucas-pond-dgc","name":"Lucas Pond Disc Golf Course","city":"Crossett ","state":"Arkansas","zip":"71635","holeCount":18,"rating":"","latitude":33.1195678,"longitude":-91.9695816},{"id":"mckissick","name":"McKissick Disc Golf Course","city":"Centerton ","state":"Arkansas","zip":"72719","holeCount":9,"rating":4.0,"latitude":36.3598901,"longitude":-94.2770559},{"id":"mena-lions-club-disc-golf-course","name":"Mena Lions Club Disc Golf Course","city":"Mena ","state":"Arkansas","zip":"71953","holeCount":18,"rating":"","latitude":34.5668971,"longitude":-94.251922},{"id":"merritt-park","name":"Merritt Park","city":"Dardanelle ","state":"Arkansas","zip":"72834","holeCount":9,"rating":"","latitude":35.2335846,"longitude":-93.1772891},{"id":"mid-south-community-college","name":"Mid-South Community College","city":"West Memphis ","state":"Arkansas","zip":"72301","holeCount":18,"rating":"","latitude":35.1454262,"longitude":-90.2228606},{"id":"morehart-park","name":"Morehart Park","city":"Mabelvale ","state":"Arkansas","zip":"72103","holeCount":9,"rating":"","latitude":34.653495,"longitude":-92.3819792},{"id":"mossy-bluff-disc-golf-course","name":"Mossy Bluff Disc Golf Course","city":"Heber Springs ","state":"Arkansas","zip":"72543","holeCount":18,"rating":"","latitude":35.5226604,"longitude":-91.9986676},{"id":"mulberry-disc-golf-course","name":"Mulberry Disc Golf Course","city":"Mulberry ","state":"Arkansas","zip":"72947","holeCount":9,"rating":"","latitude":35.5056809,"longitude":-94.0595857},{"id":"mulerider-disc-golf-course","name":"Mulerider Disc Golf Course","city":"Magnolia ","state":"Arkansas","zip":"71753","holeCount":18,"rating":"","latitude":33.2881751,"longitude":-93.2349332},{"id":"nashville-disc-golf-course","name":"Nashville Disc Golf Course","city":"Nashville ","state":"Arkansas","zip":"71852","holeCount":18,"rating":"","latitude":33.9457858,"longitude":-93.8632409},{"id":"newark-disc-golf-cedar-ridge","name":"Newark Disc Golf at Cedar Ridge","city":"Newark ","state":"Arkansas","zip":"72562","holeCount":18,"rating":"","latitude":35.7199993,"longitude":-91.4455801},{"id":"norman-city-park-dgc","name":"Norman City Park Disc Golf Course","city":"Hamburg ","state":"Arkansas","zip":"71646","holeCount":9,"rating":"","latitude":33.217981,"longitude":-91.7919666},{"id":"north-arkansas-college","name":"North Arkansas College","city":"Harrison ","state":"Arkansas","zip":"72601","holeCount":18,"rating":"","latitude":36.2204818,"longitude":-93.0888137},{"id":"northshore","name":"Northshore","city":"Fayetteville ","state":"Arkansas","zip":"72764","holeCount":18,"rating":4.0,"latitude":36.1384466,"longitude":-94.1350963},{"id":"old-post-park-disc-golf-course","name":"Old Post Park Disc Golf Course","city":"Russellville ","state":"Arkansas","zip":"72802","holeCount":18,"rating":5.0,"latitude":35.2988667,"longitude":-93.1218371},{"id":"old-town-park","name":"Old Town Park","city":"Gravette ","state":"Arkansas","zip":"72736","holeCount":9,"rating":"","latitude":36.4220463,"longitude":-94.4453705},{"id":"ouachita-baptist-university-disc-golf-course","name":"Ouachita Baptist University Disc Golf Course","city":"Arkadelphia ","state":"Arkansas","zip":"71998","holeCount":18,"rating":1.0,"latitude":34.1305096,"longitude":-93.0522581},{"id":"owl-creek-elementary","name":"Owl Creek Elementary","city":"Fayetteville ","state":"Arkansas","zip":"72704","holeCount":9,"rating":"","latitude":36.0691868,"longitude":-94.2191718},{"id":"ozark-adventist-academy","name":"Ozark Adventist Academy","city":"Gentry ","state":"Arkansas","zip":"72734","holeCount":9,"rating":"","latitude":36.238778,"longitude":-94.4994852},{"id":"ozark-disc-golf-west-side-park","name":"Ozark Disc Golf at West Side Park","city":"Ozark ","state":"Arkansas","zip":"72949","holeCount":18,"rating":"","latitude":35.5036483,"longitude":-93.8438216},{"id":"patmos-park","name":"Patmos Park","city":"Patmos ","state":"Arkansas","zip":"71801","holeCount":6,"rating":"","latitude":33.5745099,"longitude":-93.5622659},{"id":"persimmon-ridge","name":"Persimmon Ridge Disc Golf Course","city":"Greenbrier ","state":"Arkansas","zip":"72058","holeCount":18,"rating":"","latitude":35.2809467,"longitude":-92.3202104},{"id":"pine-valley-golf-course","name":"Pine Valley Golf Course","city":"Sherwood ","state":"Arkansas","zip":"72120","holeCount":18,"rating":"","latitude":34.9121134,"longitude":-92.2122059},{"id":"pirates-ridge-disc-golf-course","name":"Pirates Ridge Disc Golf Course","city":"Calico Rock ","state":"Arkansas","zip":"72519","holeCount":18,"rating":"","latitude":36.1206384,"longitude":-92.1411843},{"id":"pleasant-view-disc-golf-course","name":"Pleasant View Disc Golf Course","city":"Russellville ","state":"Arkansas","zip":"72802","holeCount":18,"rating":4.0,"latitude":35.3232705,"longitude":-93.1455382},{"id":"ramsey-jr-high-school","name":"Ramsey Jr. High School","city":"Fort Smith ","state":"Arkansas","zip":"72901","holeCount":9,"rating":"","latitude":35.3518771,"longitude":-94.4112967},{"id":"reservoir-park-disc-golf-course","name":"Reservoir Park Disc Golf Course","city":"Little Rock ","state":"Arkansas","zip":"72227","holeCount":18,"rating":"","latitude":34.7769725,"longitude":-92.3673724},{"id":"sports-life-disc-golf","name":"Sports Life Disc Golf","city":"Springdale ","state":"Arkansas","zip":"72762","holeCount":18,"rating":"","latitude":36.168586,"longitude":-94.1547609},{"id":"taylor-park","name":"Taylor Park","city":"Greenland ","state":"Arkansas","zip":"72701","holeCount":9,"rating":"","latitude":35.9932752,"longitude":-94.1758547},{"id":"course-lyon-college","name":"The Course at Lyon College","city":"Batesville ","state":"Arkansas","zip":"72501","holeCount":18,"rating":"","latitude":35.7792058,"longitude":-91.6283696},{"id":"farm-dgc","name":"The Farm Disc Golf Course","city":"Eureka Springs ","state":"Arkansas","zip":"72631","holeCount":18,"rating":"","latitude":36.4862954,"longitude":-93.8124232},{"id":"bishop-park","name":"The TRAXX at Bishop Park","city":"Bryant ","state":"Arkansas","zip":"72022","holeCount":18,"rating":"","latitude":34.5910937,"longitude":-92.5147252},{"id":"tilles-park","name":"Tilles Park","city":"Fort Smith ","state":"Arkansas","zip":"72901","holeCount":9,"rating":"","latitude":35.3853271,"longitude":-94.3912291},{"id":"timberwolf-disc-golf-course","name":"Timberwolf Disc Golf Course","city":"Morrilton ","state":"Arkansas","zip":"72110","holeCount":9,"rating":"","latitude":35.2988667,"longitude":-93.1218371},{"id":"trinity-junior-high-disc-golf","name":"Trinity Junior High Disc Golf","city":"Fort Smith ","state":"Arkansas","zip":"72903","holeCount":9,"rating":"","latitude":35.3726373,"longitude":-94.38442},{"id":"twin-creeks-disc-golf-course-0","name":"Twin Creeks Disc Golf Course","city":"Rogers ","state":"Arkansas","zip":"72758","holeCount":18,"rating":2.0,"latitude":36.2978546,"longitude":-94.1449765},{"id":"tyndall-park-juniors","name":"Tyndall Park Youth Disc Golf Course","city":"Benton ","state":"Arkansas","zip":"72015","holeCount":18,"rating":"","latitude":34.562424,"longitude":-92.5773891},{"id":"vandergriff-elementary-disc-golf-course","name":"Vandergriff Elementary School","city":"Fayetteville ","state":"Arkansas","zip":"72703","holeCount":9,"rating":"","latitude":36.0912319,"longitude":-94.1162389},{"id":"waxhaws-disc-golf-course","name":"Waxhaws Disc Golf Course","city":"Fayetteville ","state":"Arkansas","zip":"72701","holeCount":18,"rating":"","latitude":36.0540805,"longitude":-94.1608417},{"id":"williams-baptist-college-disc-golf-course","name":"Williams Baptist College Disc Golf Course","city":"Walnut Ridge ","state":"Arkansas","zip":"72476","holeCount":18,"rating":"","latitude":36.1261107,"longitude":-90.9389603},{"id":"windy-hills-disc-golf-mitchusson-park","name":"Windy Hills Disc Golf at Mitchusson Park","city":"Huntsville ","state":"Arkansas","zip":"72740","holeCount":9,"rating":5.0,"latitude":36.0765528,"longitude":-93.7477373},{"id":"winkler-disc-course","name":"Winkler Disc Course ","city":"Harrison ","state":"Arkansas","zip":"72601","holeCount":18,"rating":"","latitude":36.2582467,"longitude":-93.1175056},{"id":"woodland-mead-disc-golf-course","name":"Woodland Mead Disc Golf Course","city":"Fairfield Bay ","state":"Arkansas","zip":"72088","holeCount":9,"rating":"","latitude":35.6087442,"longitude":-92.2687472},{"id":"mount-shasta-ski-park-marmot-ridge","name":" Mount Shasta Ski Park - Marmot Ridge","city":"McCloud ","state":"California","zip":"96057","holeCount":9,"rating":"","latitude":41.321106,"longitude":-122.203502},{"id":"alpine-camp","name":"Alpine Christian Camp","city":"Blue Jay ","state":"California","zip":"92317","holeCount":9,"rating":"","latitude":34.2452583,"longitude":-117.2261361},{"id":"alumni-park-pepperdine","name":"Alumni Park at Pepperdine","city":"Malibu ","state":"California","zip":"90263","holeCount":9,"rating":2.0,"latitude":34.0368609,"longitude":-118.7055975},{"id":"anderson-river-park","name":"Anderson River Park","city":"Anderson ","state":"California","zip":"96007","holeCount":18,"rating":3.0,"latitude":40.4681574,"longitude":-122.2660085},{"id":"anderson-valley-brewing-company","name":"Anderson Valley Brewing Company","city":"Boonville ","state":"California","zip":"95494","holeCount":18,"rating":3.0,"latitude":39.0011005,"longitude":-123.3559362},{"id":"angelus-oaks-lodge-disc-golf-course","name":"Angelus Oaks Lodge Disc Golf Course","city":"Angelus Oaks ","state":"California","zip":"92305","holeCount":6,"rating":"","latitude":34.1494572,"longitude":-116.9778693},{"id":"aptos-high-school-disc-golf-course","name":"Aptos High School Disc Golf Course","city":"Aptos ","state":"California","zip":"95003","holeCount":18,"rating":4.0,"latitude":36.977339,"longitude":-121.862022},{"id":"aquatic-park","name":"Aquatic Park","city":"Berkeley ","state":"California","zip":"94703","holeCount":18,"rating":3.0,"latitude":37.8603258,"longitude":-122.2992682},{"id":"arakelian-park-disc-golf-course","name":"Arakelian Park Disc Golf Course","city":"Livingston ","state":"California","zip":"95334","holeCount":5,"rating":2.0,"latitude":37.3783928,"longitude":-120.7288969},{"id":"auburn-regional-park","name":"Auburn Regional Park","city":"Auburn ","state":"California","zip":"95603","holeCount":18,"rating":5.0,"latitude":38.9524611,"longitude":-121.1066869},{"id":"avalon-park-disc-golf","name":"Avalon Park Disc Golf","city":"Victorville ","state":"California","zip":"92395","holeCount":6,"rating":"","latitude":34.538069,"longitude":-117.307154},{"id":"b-t-collins-park","name":"B. T. Collins Park","city":"Folsom ","state":"California","zip":"95630","holeCount":9,"rating":3.0,"latitude":38.684305,"longitude":-121.1378829},{"id":"bartlett-park-disc-golf-course-0","name":"Bartlett Park Disc Golf Course","city":"Porterville ","state":"California","zip":"93257","holeCount":18,"rating":"","latitude":36.0566955,"longitude":-118.927743},{"id":"beachfront-park-disc-golf-course","name":"Beachfront Park Disc Golf Course","city":"Crescent City ","state":"California","zip":"95531","holeCount":24,"rating":3.0,"latitude":41.7484956,"longitude":-124.1961767},{"id":"beattie-park","name":"Beattie Park","city":"Lompoc ","state":"California","zip":"93436","holeCount":18,"rating":3.0,"latitude":34.6324339,"longitude":-120.4440278},{"id":"beau-pre-golf-course","name":"Beau Pre DiscGolfPark","city":"McKinleyville ","state":"California","zip":"95519","holeCount":18,"rating":5.0,"latitude":40.9629938,"longitude":-124.0963838},{"id":"benicia-community-park","name":"Benicia Community Park","city":"Benicia ","state":"California","zip":"94510","holeCount":9,"rating":2.0,"latitude":38.0880561,"longitude":-122.1597659},{"id":"big-trees-golf-course","name":"Big Trees Golf Course","city":"Yosemite National Park ","state":"California","zip":"95389","holeCount":18,"rating":"","latitude":37.5368615,"longitude":-119.6549003},{"id":"bijou-community-park","name":"Bijou Community Park","city":"South Lake Tahoe ","state":"California","zip":"96150","holeCount":27,"rating":5.0,"latitude":38.9319268,"longitude":-119.9668265},{"id":"birds-paradise","name":"Birds of Paradise","city":"Miranda ","state":"California","zip":"95553","holeCount":27,"rating":5.0,"latitude":40.2344821,"longitude":-123.8243505},{"id":"black-butte-disc-golf-course","name":"Black Butte Disc Golf Course","city":"Shingletown ","state":"California","zip":"96088","holeCount":9,"rating":"","latitude":40.5180397,"longitude":-121.9342956},{"id":"black-butte-lake-disc-golf-course","name":"Black Butte Lake Disc Golf Course","city":"Orland ","state":"California","zip":"95963","holeCount":18,"rating":4.0,"latitude":39.7684693,"longitude":-122.3514534},{"id":"black-rock-disc-golf","name":"Blackrock Disc Golf Course","city":"Cobb ","state":"California","zip":"95426","holeCount":18,"rating":4.0,"latitude":38.8221206,"longitude":-122.7163009},{"id":"boosinger-mini-course","name":"Boosinger Practice Course","city":"Pismo Beach ","state":"California","zip":"93449","holeCount":1,"rating":"","latitude":35.1468253,"longitude":-120.639494},{"id":"bhs-disc-cats","name":"Boron School Disc Cats","city":"Boron ","state":"California","zip":"93516","holeCount":10,"rating":"","latitude":35.0048711,"longitude":-117.6551809},{"id":"brengle-terrace-park-disc-golf-course","name":"Brengle Terrace Park Disc Golf Course","city":"Vista ","state":"California","zip":"92084","holeCount":18,"rating":4.0,"latitude":33.2097547,"longitude":-117.2229343},{"id":"bridge-bridge","name":"Bridge to Bridge","city":"Santa Cruz ","state":"California","zip":"95060","holeCount":9,"rating":"","latitude":36.9524725,"longitude":-122.057168},{"id":"brooktrails-golf-course","name":"Brooktrails Golf Course","city":"Willits ","state":"California","zip":"95490","holeCount":18,"rating":5.0,"latitude":39.437515,"longitude":-123.3846928},{"id":"browns-and-bows","name":"Browns and Bows","city":"Browns Valley ","state":"California","zip":"95918","holeCount":36,"rating":"","latitude":39.3162289,"longitude":-121.3649229},{"id":"splat-hill-disc-golf-course-back","name":"Browns and Bows Disc Golf Course - Back","city":"Browns Valley ","state":"California","zip":"95918","holeCount":18,"rating":"","latitude":39.3162289,"longitude":-121.3649229},{"id":"splat-hill-disc-golf-course-front","name":"Browns and Bows Disc Golf Course - Front","city":"Browns Valley ","state":"California","zip":"95918","holeCount":18,"rating":5.0,"latitude":39.3162289,"longitude":-121.3649229},{"id":"buckeye-park","name":"Buckeye Park","city":"Redding ","state":"California","zip":"96003","holeCount":18,"rating":"","latitude":40.6308462,"longitude":-122.4009748},{"id":"buckingham-golf-course","name":"Buckingham Golf Course","city":"Kelseyville ","state":"California","zip":"95451","holeCount":18,"rating":"","latitude":39.0012519,"longitude":-122.7562477},{"id":"buena-vista-high-school","name":"Buena Vista High School","city":"Taft ","state":"California","zip":"93268","holeCount":4,"rating":"","latitude":35.1498334,"longitude":-119.4645849},{"id":"buena-vista-hill-disc-golf-course-elysian-park","name":"Buena Vista Hill Disc Golf Course at Elysian Park","city":"Los Angeles ","state":"California","zip":"90012","holeCount":5,"rating":1.0,"latitude":34.0785227,"longitude":-118.2324932},{"id":"buttonwillow-park","name":"Buttonwillow Park","city":"Buttonwillow ","state":"California","zip":"93206","holeCount":9,"rating":"","latitude":35.400517,"longitude":-119.4695619},{"id":"lake-cachuma-disc-golf-course","name":"Cachuma Lake Disc Golf Course","city":"Santa Barbara ","state":"California","zip":"93105","holeCount":18,"rating":4.0,"latitude":34.5764797,"longitude":-119.9580955},{"id":"camerado-springs-middle-school","name":"Camerado Springs Middle School","city":"Cameron Park ","state":"California","zip":"95682","holeCount":9,"rating":4.0,"latitude":38.6580292,"longitude":-121.005098},{"id":"cameron-park-lake-disc-golf-course","name":"Cameron Park Lake Disc Golf Course","city":"Cameron Park ","state":"California","zip":"95682","holeCount":18,"rating":5.0,"latitude":38.6856104,"longitude":-120.9982548},{"id":"camp-jones-gulch","name":"Camp Jones Gulch","city":"La Honda ","state":"California","zip":"94020","holeCount":9,"rating":"","latitude":37.2887577,"longitude":-122.2800849},{"id":"camp-pendleton-21-area","name":"Camp Pendleton - 21 Area","city":"Oceanside ","state":"California","zip":"92058","holeCount":9,"rating":"","latitude":33.2250702,"longitude":-117.403185},{"id":"camp-pendleton-barracks-disc-golf-13-area","name":"Camp Pendleton Barracks Disc Golf - 13 Area","city":"Oceanside ","state":"California","zip":"92058","holeCount":9,"rating":"","latitude":33.3093324,"longitude":-117.3130418},{"id":"captain-johns-fawn-harbor-marina","name":"Captain John\u2019s Fawn Harbor and Marina","city":"Fawnskin ","state":"California","zip":"92333","holeCount":10,"rating":"","latitude":34.2665308,"longitude":-116.9429766},{"id":"carmel-middle-school","name":"Carmel Middle School","city":"Carmel ","state":"California","zip":"93923","holeCount":18,"rating":1.0,"latitude":36.5423,"longitude":-121.897217},{"id":"carmichael-park-disc-golf-course","name":"Carmichael Park Disc Golf Course","city":"Carmichael ","state":"California","zip":"95608","holeCount":9,"rating":2.0,"latitude":38.6273574,"longitude":-121.3309779},{"id":"centennial-park","name":"Centennial Park","city":"Hanford ","state":"California","zip":"93230","holeCount":9,"rating":1.0,"latitude":36.312455,"longitude":-119.6668929},{"id":"central-park-disc-golf-course-0","name":"Central Park Disc Golf Course","city":"Santa Clarita ","state":"California","zip":"91350","holeCount":18,"rating":3.0,"latitude":34.4344907,"longitude":-118.5207842},{"id":"chabot-park","name":"Chabot Park","city":"San Leandro  ","state":"California","zip":"94577","holeCount":9,"rating":2.0,"latitude":37.7314028,"longitude":-122.1313051},{"id":"chaparral-disc-golf-course","name":"Chaparral Disc Golf Course","city":"Oak Park ","state":"California","zip":"91377","holeCount":10,"rating":"","latitude":34.1727577,"longitude":-118.7643538},{"id":"chavez-ridge-disc-golf-course-elysian","name":"Chavez Ridge Disc Golf Course at Elysian","city":"Los Angeles ","state":"California","zip":"90012","holeCount":27,"rating":3.0,"latitude":34.0807854,"longitude":-118.2339862},{"id":"china-peak-disc-golf","name":"China Peak Disc Golf","city":"Lakeshore ","state":"California","zip":"93634","holeCount":27,"rating":5.0,"latitude":37.2364356,"longitude":-119.1573708},{"id":"christa-mcaulife-middle-school-dgc","name":"Christa McAuliffe Middle School Disc Golf","city":"Stockton ","state":"California","zip":"95209","holeCount":9,"rating":"","latitude":38.045822,"longitude":-121.366939},{"id":"church-lds-dgc","name":"Church of LDS Disc Golf Course","city":"Nevada City ","state":"California","zip":"95959","holeCount":9,"rating":"","latitude":39.252444,"longitude":-121.0203171},{"id":"city-hills","name":"City In the Hills","city":"Bakersfield ","state":"California","zip":"93306","holeCount":18,"rating":"","latitude":35.4039857,"longitude":-118.885894},{"id":"coalinga-disc-golf-course","name":"Coalinga Disc Golf Course","city":"Coalinga ","state":"California","zip":"93210","holeCount":18,"rating":"","latitude":36.1375141,"longitude":-120.3702125},{"id":"coast-guard-air-station-humboldt-bay","name":"Coast Guard Air Station Humboldt Bay","city":"McKinleyville ","state":"California","zip":"95519","holeCount":9,"rating":"","latitude":40.9764527,"longitude":-124.1133819},{"id":"cody-minter-disc-golf-course","name":"Cody Minter Disc Golf Course","city":"Raymond ","state":"California","zip":"93653","holeCount":9,"rating":"","latitude":36.8684176,"longitude":-119.7862701},{"id":"colina-park-golf-course","name":"Colina Park Golf Course","city":"San Diego ","state":"California","zip":"92105","holeCount":18,"rating":4.0,"latitude":32.7511787,"longitude":-117.0833521},{"id":"college-marin-campus-course","name":"College of Marin Campus Course","city":"Kentfield ","state":"California","zip":"94904","holeCount":18,"rating":"","latitude":37.9557809,"longitude":-122.5496376},{"id":"college-redwoods-0","name":"College of the Redwoods","city":"Fort Bragg ","state":"California","zip":"95437","holeCount":13,"rating":4.0,"latitude":39.4220967,"longitude":-123.8115564},{"id":"colton-disc-golf-course","name":"Colton Disc Golf Course","city":"Colton ","state":"California","zip":"92324","holeCount":18,"rating":"","latitude":34.0713348,"longitude":-117.359085},{"id":"concordia-university-irvine-disc-golf-course","name":"Concordia University Irvine Disc Golf Course","city":"Irvine ","state":"California","zip":"92612","holeCount":9,"rating":5.0,"latitude":33.6539343,"longitude":-117.8105295},{"id":"cooper-gulch","name":"Cooper Gulch","city":"Eureka ","state":"California","zip":"95501","holeCount":9,"rating":4.0,"latitude":40.7996566,"longitude":-124.1522714},{"id":"coyote-creek-disc-golf-course-hellyer-park","name":"Coyote Creek Disc Golf Course at Hellyer Park","city":"San Jose ","state":"California","zip":"95111","holeCount":9,"rating":4.0,"latitude":37.2824665,"longitude":-121.8124803},{"id":"coyote-point-disc-golf-course-lake-casitas","name":"Coyote Point Disc Golf Course at Lake Casitas","city":"Ventura ","state":"California","zip":"93001","holeCount":18,"rating":4.0,"latitude":34.4066731,"longitude":-119.3512624},{"id":"crane-creek-disc-golf","name":"Crane Creek Disc Golf","city":"Santa Rosa ","state":"California","zip":"95404","holeCount":18,"rating":"","latitude":38.3440623,"longitude":-122.6444407},{"id":"crowleg-disc-golf-hickey-park","name":"Crowleg Disc Golf at Hickey Park","city":"Hanford ","state":"California","zip":"93230","holeCount":18,"rating":"","latitude":36.3720924,"longitude":-119.7604391},{"id":"csu-san-marcos-disc-golf-course","name":"CSU San Marcos Disc Golf Course","city":"San Marcos ","state":"California","zip":"92078","holeCount":18,"rating":1.0,"latitude":33.131931,"longitude":-117.159735},{"id":"csumb-cypress-disc-golf-course","name":"CSUMB Cypress Disc Golf Course","city":"Seaside ","state":"California","zip":"93955","holeCount":20,"rating":4.0,"latitude":36.6499144,"longitude":-121.8007708},{"id":"csumb-oaks-disc-golf-course","name":"CSUMB Oaks Disc Golf Course","city":"Seaside ","state":"California","zip":"93955","holeCount":20,"rating":3.0,"latitude":36.6499144,"longitude":-121.8007708},{"id":"cypress-community-church","name":"Cypress Community Church","city":"Salinas ","state":"California","zip":"93908","holeCount":9,"rating":"","latitude":36.5822378,"longitude":-121.7266449},{"id":"david-l-baker-golf-course","name":"David L. Baker Golf Course","city":"Fountain Valley ","state":"California","zip":"92708","holeCount":18,"rating":5.0,"latitude":33.7294448,"longitude":-117.947473},{"id":"debell-disc-golf-course","name":"DeBell Disc Golf Course","city":"Burbank ","state":"California","zip":"91501","holeCount":9,"rating":3.0,"latitude":34.1985631,"longitude":-118.3034539},{"id":"deer-meadow-disc-golf-course","name":"Deer Meadow Disc Golf Course","city":"Lewiston ","state":"California","zip":"96052","holeCount":9,"rating":"","latitude":40.7679341,"longitude":-122.8162341},{"id":"deerfield-community-park-0","name":"Deerfield Community Park","city":"Irvine ","state":"California","zip":"92604","holeCount":9,"rating":4.0,"latitude":33.6903413,"longitude":-117.7929038},{"id":"delaveaga-park-disc-golf-course","name":"DeLaveaga Disc Golf Course","city":"Santa Cruz ","state":"California","zip":"95065","holeCount":29,"rating":4.0,"latitude":37.0052944,"longitude":-121.9960878},{"id":"delaveaga-golf-course","name":"DeLaveaga Golf Course","city":"Santa Cruz ","state":"California","zip":"95065","holeCount":18,"rating":"","latitude":36.997172,"longitude":-122.001397},{"id":"desert-sands-park-disc-golf-course","name":"Desert Sands Park Disc Golf Course","city":"Palmdale ","state":"California","zip":"93550","holeCount":9,"rating":2.0,"latitude":34.593222,"longitude":-118.12684},{"id":"desert-winds-disc-golf-course","name":"Desert Winds Disc Golf Course","city":"Twentynine Palms ","state":"California","zip":"92278","holeCount":9,"rating":"","latitude":34.2512817,"longitude":-116.0853881},{"id":"diamond-arrow-dgc","name":"Diamond Arrow Disc Golf Course","city":"Nevada City ","state":"California","zip":"95959","holeCount":9,"rating":"","latitude":39.2173449,"longitude":-121.0759504},{"id":"dog-island-disc-golf","name":"Dog Island Disc Golf","city":"Red Bluff ","state":"California","zip":"96080","holeCount":18,"rating":4.0,"latitude":40.1837369,"longitude":-122.2390131},{"id":"doris-davies-park-disc-golf-course","name":"Doris Davies Park Disc Golf Course","city":"Victorville ","state":"California","zip":"92394","holeCount":9,"rating":2.0,"latitude":34.5071824,"longitude":-117.3085134},{"id":"dry-creek-preserve-disc-golf-course","name":"Dry Creek Preserve Disc Golf Course","city":"Woodlake ","state":"California","zip":"93286","holeCount":18,"rating":4.0,"latitude":36.43188,"longitude":-119.024693},{"id":"east-la-loma-park","name":"East La Loma Park","city":"Modesto ","state":"California","zip":"95354","holeCount":27,"rating":4.0,"latitude":37.6508349,"longitude":-120.9625089},{"id":"edgewater-disc-golf-course","name":"Edgewater Disc Golf Course","city":"Redding ","state":"California","zip":"96002","holeCount":18,"rating":"","latitude":40.4750277,"longitude":-122.3172364},{"id":"el-dorado-park-disc-golf-course","name":"El Dorado Park Disc Golf Course","city":"Long Beach ","state":"California","zip":"90815","holeCount":18,"rating":4.0,"latitude":33.8088958,"longitude":-118.0986394},{"id":"elk-grove-disc-golf-course","name":"Elk Grove Disc Golf Course","city":"Elk Grove ","state":"California","zip":"95624","holeCount":9,"rating":2.0,"latitude":38.395596,"longitude":-121.3732817},{"id":"emerald-hills","name":"Emerald Hills Disc Golf Course","city":"Redwood City ","state":"California","zip":"94061","holeCount":18,"rating":5.0,"latitude":37.453772,"longitude":-122.264325},{"id":"enterprise-community-park","name":"Enterprise Community Park","city":"Redding ","state":"California","zip":"96002","holeCount":18,"rating":2.0,"latitude":40.5460466,"longitude":-122.3399442},{"id":"escondido-rotary-disc-golf-course-kit-carson-park","name":"Escondido Rotary Disc Golf Course at Kit Carson Park","city":"Escondido ","state":"California","zip":"92025","holeCount":18,"rating":3.0,"latitude":33.0767459,"longitude":-117.0577591},{"id":"evergreen-forest","name":"Evergreen Forest","city":"Mather ","state":"California","zip":"95321","holeCount":9,"rating":"","latitude":37.8758239,"longitude":-119.8582611},{"id":"evergreen-open-space","name":"Evergreen Open Space","city":"Santa Barbara (Goleta) ","state":"California","zip":"93117","holeCount":18,"rating":3.0,"latitude":34.438077,"longitude":-119.8904903},{"id":"fahrens-park-disc-golf-course","name":"Fahrens Park Disc Golf Course","city":"Merced ","state":"California","zip":"95348","holeCount":21,"rating":3.0,"latitude":37.325994,"longitude":-120.487447},{"id":"oak-view-park-disc-golf-course","name":"Fallen Heroes Park Disc Golf Course","city":"Beaumont ","state":"California","zip":"92223","holeCount":9,"rating":"","latitude":33.9517911,"longitude":-116.9900251},{"id":"feeney","name":"Feeney","city":"Murphys ","state":"California","zip":"95247","holeCount":18,"rating":"","latitude":38.1322646,"longitude":-120.4527905},{"id":"ferns-park","name":"Ferns Park","city":"Woodland ","state":"California","zip":"95695","holeCount":9,"rating":2.0,"latitude":38.6701551,"longitude":-121.7967724},{"id":"fica-urban-play","name":"FICA Urban Play","city":"Fort Irwin ","state":"California","zip":"92310","holeCount":7,"rating":"","latitude":35.2628402,"longitude":-116.6846351},{"id":"finnon-lake","name":"Finnon Lake","city":"Placerville ","state":"California","zip":"95667","holeCount":27,"rating":4.0,"latitude":38.799233,"longitude":-120.750529},{"id":"firebaugh-disc-golf-course","name":"Firebaugh Disc Golf Course","city":"Firebaugh ","state":"California","zip":"93622","holeCount":10,"rating":2.0,"latitude":36.8684176,"longitude":-119.7862701},{"id":"ford-park-0","name":"Ford Park","city":"Redlands ","state":"California","zip":"92374","holeCount":9,"rating":2.0,"latitude":34.0426158,"longitude":-117.1594398},{"id":"foxwood-lake-almanor","name":"Foxwood at Lake Almanor","city":"Lake Almanor ","state":"California","zip":"96137","holeCount":7,"rating":"","latitude":40.2858571,"longitude":-121.1256781},{"id":"franklin-field","name":"Franklin Field","city":"Taft ","state":"California","zip":"93268","holeCount":18,"rating":3.0,"latitude":35.1531706,"longitude":-119.4404221},{"id":"frontier-park-0","name":"Frontier Park ","city":"Tustin ","state":"California","zip":"92780","holeCount":9,"rating":1.0,"latitude":33.7323026,"longitude":-117.8187265},{"id":"gehringer-park-recreation-club","name":"Gehringer Park Recreation Club","city":"Concord ","state":"California","zip":"94519","holeCount":4,"rating":"","latitude":37.9854573,"longitude":-121.9939961},{"id":"georgetown-school-disc-golf-course","name":"Georgetown School Disc Golf Course","city":"Georgetown ","state":"California","zip":"95634","holeCount":9,"rating":"","latitude":38.9086337,"longitude":-120.8327999},{"id":"glen-helen-regional-park-disc-golf-course","name":"Glen Helen Regional Park Disc Golf Course","city":"San Bernardino ","state":"California","zip":"92407","holeCount":18,"rating":"","latitude":34.2080855,"longitude":-117.4088476},{"id":"gleneagles-disc-golf-course-2","name":"Gleneagles Disc Golf Course","city":"San Francisco ","state":"California","zip":"94134","holeCount":18,"rating":1.0,"latitude":37.7158711,"longitude":-122.4243943},{"id":"goat-hill-park","name":"Goat Hill Park","city":"Oceanside ","state":"California","zip":"92054","holeCount":18,"rating":4.0,"latitude":33.197388,"longitude":-117.3581905},{"id":"golden-gate-park-disc-golf-course","name":"Golden Gate Park Disc Golf Course","city":"San Francisco ","state":"California","zip":"94121","holeCount":18,"rating":4.0,"latitude":37.771022,"longitude":-122.4865656},{"id":"green-valley-disc-golf-course","name":"Green Valley Disc Golf Course","city":"Green Valley ","state":"California","zip":"91390","holeCount":9,"rating":4.0,"latitude":34.6092223,"longitude":-118.3936744},{"id":"h-clarke-powers","name":"H. Clarke Powers Elementary School","city":"Loomis ","state":"California","zip":"95650","holeCount":9,"rating":2.0,"latitude":38.8311856,"longitude":-121.2012549},{"id":"hammer-thor-clement-middle-school","name":"Hammer of Thor at Clement Middle School","city":"Redlands ","state":"California","zip":"92374","holeCount":9,"rating":"","latitude":34.0746773,"longitude":-117.1775045},{"id":"hammon-grove-park","name":"Hammon Grove Park","city":"Browns Valley ","state":"California","zip":"95918","holeCount":18,"rating":3.0,"latitude":39.2291372,"longitude":-121.4008741},{"id":"hanging-oaks","name":"Hanging Oaks at Western Gateway Park","city":"Penn Valley ","state":"California","zip":"95946","holeCount":18,"rating":4.0,"latitude":39.2012945,"longitude":-121.1918552},{"id":"hart-park-shark-tooth-mountain-disc-golf-course","name":"Hart Park - Shark Tooth Mountain Disc Golf Course","city":"Bakersfield ","state":"California","zip":"93308","holeCount":18,"rating":3.0,"latitude":35.4445136,"longitude":-118.9061049},{"id":"hart-park-suicide-flats","name":"Hart Park - Suicide Flats","city":"Bakersfield ","state":"California","zip":"93308","holeCount":18,"rating":5.0,"latitude":35.4444575,"longitude":-118.9081356},{"id":"heilmann-park","name":"Heilmann Park","city":"Atascadero ","state":"California","zip":"93422","holeCount":18,"rating":4.0,"latitude":35.4660843,"longitude":-120.6431627},{"id":"hensley-lake-disc-golf-course","name":"Hensley Lake Disc Golf Course","city":"Raymond ","state":"California","zip":"93653","holeCount":18,"rating":4.0,"latitude":37.1193596,"longitude":-119.8757349},{"id":"heritage-park-disc-golf-course-0","name":"Heritage Park Disc Golf Course","city":"Lemoore ","state":"California","zip":"93245","holeCount":18,"rating":"","latitude":36.3114174,"longitude":-119.7726419},{"id":"highland-springs-reservoir","name":"Highland Springs Reservoir","city":"Lakeport ","state":"California","zip":"95453","holeCount":23,"rating":3.0,"latitude":38.9416111,"longitude":-122.9064317},{"id":"hillcrest-concord","name":"Hillcrest Community Park","city":"Concord ","state":"California","zip":"94520","holeCount":9,"rating":4.0,"latitude":37.9976305,"longitude":-122.0431212},{"id":"howard-park","name":"Howard Park","city":"Ione ","state":"California","zip":"95640","holeCount":12,"rating":1.0,"latitude":38.3427045,"longitude":-120.9311143},{"id":"huntington-beach-central-park","name":"Huntington Beach Central Park","city":"Huntington Beach ","state":"California","zip":"92647","holeCount":18,"rating":3.0,"latitude":33.6988188,"longitude":-118.0075136},{"id":"isla-vista-peace-course","name":"Isla Vista Peace Course","city":"Santa Barbara (Isla Vista) ","state":"California","zip":"93117","holeCount":9,"rating":1.0,"latitude":34.4133292,"longitude":-119.8609718},{"id":"jenness-park-christian-camp","name":"Jenness Park Christian Camp","city":"Cold Springs ","state":"California","zip":"95335","holeCount":9,"rating":"","latitude":38.139039,"longitude":-120.0629158},{"id":"joe-hamilton-elementary","name":"Joe Hamilton Elementary","city":"Crescent City ","state":"California","zip":"95531","holeCount":7,"rating":"","latitude":41.7554502,"longitude":-124.2061025},{"id":"john-mackey-park","name":"John Mackey Park","city":"Sacramento ","state":"California","zip":"95815","holeCount":9,"rating":3.0,"latitude":38.6250818,"longitude":-121.423559},{"id":"kearney-park","name":"Kearney Park","city":"Fresno ","state":"California","zip":"93706","holeCount":18,"rating":"","latitude":36.7278092,"longitude":-119.9127611},{"id":"kelley-park-disc-golf-course","name":"Kelley Park Disc Golf Course","city":"San Jose ","state":"California","zip":"95112","holeCount":18,"rating":4.0,"latitude":37.3216948,"longitude":-121.8551936},{"id":"kelly-ridge-golf-course","name":"Kelly Ridge Golf Course","city":"Oroville ","state":"California","zip":"95966","holeCount":18,"rating":4.0,"latitude":39.5324654,"longitude":-121.4724079},{"id":"kenneth-hahn-disc-golf-course","name":"Kenneth Hahn State Rec. Area Disc Golf Course","city":"Los Angeles ","state":"California","zip":"90056","holeCount":9,"rating":4.0,"latitude":34.0065112,"longitude":-118.3630311},{"id":"kern-river-disc-golf-course","name":"Kern River Disc Golf Course","city":"Bakersfield ","state":"California","zip":"93309","holeCount":12,"rating":2.0,"latitude":35.3692125,"longitude":-119.0601673},{"id":"kern-river-disc-golf-course-0","name":"Kern River Golf Course","city":"Bakersfield ","state":"California","zip":"93306","holeCount":18,"rating":"","latitude":35.4336853,"longitude":-118.85923},{"id":"kings-river-dgc","name":"Kings River Disc Golf Course","city":"Kingsburg ","state":"California","zip":"93631","holeCount":18,"rating":"","latitude":36.518092,"longitude":-119.5043089},{"id":"kirkwood-mountain-resort","name":"Kirkwood Mountain Resort","city":"Kirkwood ","state":"California","zip":"95646","holeCount":18,"rating":5.0,"latitude":38.6847514,"longitude":-120.0651665},{"id":"kiwanis-disc-golf-course-town-country-park","name":"Kiwanis Disc Golf Course at Town & Country Park","city":"Madera ","state":"California","zip":"93637","holeCount":9,"rating":"","latitude":36.9511685,"longitude":-120.0874651},{"id":"la-mirada-regional-park-back-18","name":"La Mirada Regional Park - Back 18","city":"La Mirada ","state":"California","zip":"90638","holeCount":18,"rating":4.0,"latitude":33.9066319,"longitude":-118.006778},{"id":"la-mirada-regional-park-lake-18","name":"La Mirada Regional Park - Lake 18","city":"La Mirada ","state":"California","zip":"90638","holeCount":18,"rating":4.0,"latitude":33.9066319,"longitude":-118.006778},{"id":"lagoon-valley","name":"Lagoon Valley Disc Golf Course","city":"Vacaville ","state":"California","zip":"95687","holeCount":27,"rating":4.0,"latitude":38.3297871,"longitude":-122.0102227},{"id":"laguna-lake","name":"Laguna Lake","city":"San Luis Obispo ","state":"California","zip":"93405","holeCount":18,"rating":2.0,"latitude":35.2658779,"longitude":-120.6911616},{"id":"lake-amador-campground","name":"Lake Amador Campground","city":"Ione ","state":"California","zip":"95640","holeCount":18,"rating":"","latitude":38.302216,"longitude":-120.887949},{"id":"lake-amador-north","name":"Lake Amador North","city":"Ione ","state":"California","zip":"95640","holeCount":18,"rating":"","latitude":38.302216,"longitude":-120.887949},{"id":"lake-amador-south","name":"Lake Amador South ","city":"Ione ","state":"California","zip":"95640","holeCount":18,"rating":5.0,"latitude":38.3151257,"longitude":-120.8864378},{"id":"lake-california-disc-golf","name":"Lake California Disc Golf","city":"Cottonwood ","state":"California","zip":"96022","holeCount":9,"rating":"","latitude":40.4750277,"longitude":-122.3172364},{"id":"lake-chabot-disc-golf-course-bay","name":"Lake Chabot Disc Golf Course - Bay","city":"Oakland ","state":"California","zip":"94605","holeCount":18,"rating":"","latitude":37.7395095,"longitude":-122.1192932},{"id":"lake-chabot-golf-course-hills","name":"Lake Chabot Disc Golf Course - Hills ","city":"Oakland ","state":"California","zip":"94605","holeCount":18,"rating":"","latitude":37.7395095,"longitude":-122.1192932},{"id":"lake-chabot-disc-golf-course","name":"Lake Chabot Disc Golf Course - Lake","city":"Oakland ","state":"California","zip":"94605","holeCount":9,"rating":4.0,"latitude":37.7395095,"longitude":-122.1192932},{"id":"lake-forest-golf-and-practice-center","name":"Lake Forest Golf And Practice Center ","city":"Lake Forest ","state":"California","zip":"92630","holeCount":9,"rating":"","latitude":33.623786,"longitude":-117.689476},{"id":"lake-mendocino-north","name":"Lake Mendocino (North)","city":"Ukiah ","state":"California","zip":"95482","holeCount":18,"rating":2.0,"latitude":39.2173837,"longitude":-123.171699},{"id":"lake-mendocino-south","name":"Lake Mendocino (South)","city":"Ukiah ","state":"California","zip":"95482","holeCount":18,"rating":3.0,"latitude":39.2043399,"longitude":-123.1831906},{"id":"lake-sonoma","name":"Lake Sonoma","city":"Geyserville ","state":"California","zip":"95441","holeCount":9,"rating":"","latitude":38.7074755,"longitude":-122.9027647},{"id":"larpd-disc-golf-course","name":"LARPD Disc Golf Course ","city":"Livermore ","state":"California","zip":"94551","holeCount":9,"rating":3.0,"latitude":37.6701734,"longitude":-121.7514425},{"id":"lava-creek-disc-golf","name":"Lava Creek Disc Golf","city":"Paradise ","state":"California","zip":"95969","holeCount":18,"rating":3.0,"latitude":39.7410506,"longitude":-121.6105192},{"id":"lee-fong-park-disc-golf-course","name":"Lee Fong Park Disc Golf Course","city":"Weaverville ","state":"California","zip":"96093","holeCount":18,"rating":"","latitude":40.7278312,"longitude":-122.9408402},{"id":"liberty-park","name":"Liberty Park","city":"Cerritos ","state":"California","zip":"90703","holeCount":9,"rating":2.0,"latitude":33.8554639,"longitude":-118.1001694},{"id":"lions-park-2","name":"Lions Park","city":"Placerville ","state":"California","zip":"95667","holeCount":12,"rating":4.0,"latitude":38.718071,"longitude":-120.775075},{"id":"little-basin-disc-golf-course","name":"Little Basin Disc Golf Course","city":"Boulder Creek ","state":"California","zip":"95006","holeCount":9,"rating":"","latitude":37.1538383,"longitude":-122.1617002},{"id":"los-arboles-disc-golf-course","name":"Los Arboles Middle School Disc Golf Course","city":"Marina ","state":"California","zip":"93933","holeCount":9,"rating":"","latitude":36.67867,"longitude":-121.7973343},{"id":"low-gap-park","name":"Low Gap Park","city":"Ukiah ","state":"California","zip":"95482","holeCount":18,"rating":4.0,"latitude":39.1619052,"longitude":-123.227377},{"id":"mad-river-pump-station-4","name":"Mad River Pump Station #4","city":"Arcata ","state":"California","zip":"95521","holeCount":9,"rating":3.0,"latitude":40.90376,"longitude":-124.038861},{"id":"manchester-beach-koa","name":"Manchester Beach KOA","city":"Manchester ","state":"California","zip":"95459","holeCount":18,"rating":2.0,"latitude":38.9812611,"longitude":-123.6935894},{"id":"manila-bay-disc-golf-course","name":"Manila Bay Disc Golf Course","city":"Arcata ","state":"California","zip":"95521","holeCount":9,"rating":3.0,"latitude":40.8520506,"longitude":-124.165516},{"id":"narrows-disc-golf-course","name":"Martha McLean Anza Narrows Park","city":"Riverside ","state":"California","zip":"92504","holeCount":18,"rating":"","latitude":33.9649086,"longitude":-117.4303137},{"id":"mast-park","name":"Mast Park","city":"Santee ","state":"California","zip":"92071","holeCount":9,"rating":4.0,"latitude":32.8445678,"longitude":-116.9933362},